%time,field.header.seq,field.header.stamp,field.header.frame_id,42.33709335,-71.0898819,field.altitude,field.northing,field.easting,field.zone
1.58095E+18,104,1.58095E+18,,42.33709335,-71.0898819,-27.19999886,4689319.612,327833.8193,19T
1.58095E+18,105,1.58095E+18,,42.33709335,-71.0898819,-27.19999886,4689319.612,327833.8193,19T
1.58095E+18,106,1.58095E+18,,42.33709335,-71.0898819,-27.19999886,4689319.612,327833.8193,19T
1.58095E+18,107,1.58095E+18,,42.33709335,-71.0898819,-27.19999886,4689319.612,327833.8193,19T
1.58095E+18,108,1.58095E+18,,42.33709335,-71.0898819,-27.19999886,4689319.612,327833.8193,19T
1.58095E+18,109,1.58095E+18,,42.33709335,-71.0898819,-27.19999886,4689319.612,327833.8193,19T
1.58095E+18,110,1.58095E+18,,42.33709335,-71.0898819,-27.19999886,4689319.612,327833.8193,19T
1.58095E+18,111,1.58095E+18,,42.33709335,-71.0898819,-27.19999886,4689319.612,327833.8193,19T
1.58095E+18,112,1.58095E+18,,42.33709335,-71.0898819,-27.19999886,4689319.612,327833.8193,19T
1.58095E+18,113,1.58095E+18,,42.33709335,-71.0898819,-27.19999886,4689319.612,327833.8193,19T
1.58095E+18,114,1.58095E+18,,42.33709335,-71.0898819,-27.19999886,4689319.612,327833.8193,19T
1.58095E+18,115,1.58095E+18,,42.33709335,-71.0898819,-27.19999886,4689319.612,327833.8193,19T
1.58095E+18,116,1.58095E+18,,42.33709335,-71.0898819,-27.19999886,4689319.612,327833.8193,19T
1.58095E+18,117,1.58095E+18,,42.33709335,-71.0898819,-27.19999886,4689319.612,327833.8193,19T
1.58095E+18,118,1.58095E+18,,42.33709335,-71.0898819,-27.19999886,4689319.612,327833.8193,19T
1.58095E+18,119,1.58095E+18,,42.33709335,-71.0898819,-27.19999886,4689319.612,327833.8193,19T
1.58095E+18,120,1.58095E+18,,42.33709335,-71.0898819,-27.19999886,4689319.612,327833.8193,19T
1.58095E+18,121,1.58095E+18,,42.33709335,-71.0898819,-27.19999886,4689319.612,327833.8193,19T
1.58095E+18,122,1.58095E+18,,42.33709335,-71.0898819,-27.19999886,4689319.612,327833.8193,19T
1.58095E+18,123,1.58095E+18,,42.33709335,-71.0898819,-27.19999886,4689319.612,327833.8193,19T
1.58095E+18,124,1.58095E+18,,42.33709335,-71.0898819,-27.19999886,4689319.612,327833.8193,19T
1.58095E+18,125,1.58095E+18,,42.33709335,-71.0898819,-27.19999886,4689319.612,327833.8193,19T
1.58095E+18,126,1.58095E+18,,42.33709335,-71.0898819,-27.19999886,4689319.612,327833.8193,19T
1.58095E+18,127,1.58095E+18,,42.33709335,-71.0898819,-27.19999886,4689319.612,327833.8193,19T
1.58095E+18,128,1.58095E+18,,42.33709335,-71.0898819,-27.19999886,4689319.612,327833.8193,19T
1.58095E+18,129,1.58095E+18,,42.33709335,-71.0898819,-27.19999886,4689319.612,327833.8193,19T
1.58095E+18,130,1.58095E+18,,42.33709335,-71.0898819,-27.19999886,4689319.612,327833.8193,19T
1.58095E+18,131,1.58095E+18,,42.33709335,-71.0898819,-27.19999886,4689319.612,327833.8193,19T
1.58095E+18,132,1.58095E+18,,42.33709335,-71.0898819,-27.19999886,4689319.612,327833.8193,19T
1.58095E+18,133,1.58095E+18,,42.33709335,-71.0898819,-27.19999886,4689319.612,327833.8193,19T
1.58095E+18,134,1.58095E+18,,42.33709335,-71.0898819,-27.19999886,4689319.612,327833.8193,19T
1.58095E+18,135,1.58095E+18,,42.33709335,-71.0898819,-27.09999847,4689319.612,327833.8193,19T
1.58095E+18,136,1.58095E+18,,42.33709335,-71.0898819,-27.09999847,4689319.612,327833.8193,19T
1.58095E+18,137,1.58095E+18,,42.33709335,-71.0898819,-27.09999847,4689319.612,327833.8193,19T
1.58095E+18,138,1.58095E+18,,42.33709335,-71.0898819,-27.09999847,4689319.612,327833.8193,19T
1.58095E+18,139,1.58095E+18,,42.33709335,-71.0898819,-27,4689319.612,327833.8193,19T
1.58095E+18,140,1.58095E+18,,42.33709335,-71.0898819,-27,4689319.612,327833.8193,19T
1.58095E+18,141,1.58095E+18,,42.33709335,-71.0898819,-27,4689319.612,327833.8193,19T
1.58095E+18,142,1.58095E+18,,42.33709717,-71.0898819,-27,4689320.035,327833.8297,19T
1.58095E+18,143,1.58095E+18,,42.33709717,-71.0898819,-27,4689320.035,327833.8297,19T
1.58095E+18,144,1.58095E+18,,42.33709717,-71.0898819,-27,4689320.035,327833.8297,19T
1.58095E+18,145,1.58095E+18,,42.33709717,-71.0898819,-27,4689320.035,327833.8297,19T
1.58095E+18,146,1.58095E+18,,42.33709717,-71.0898819,-26.89999962,4689320.035,327833.8297,19T
1.58095E+18,147,1.58095E+18,,42.33709717,-71.0898819,-26.89999962,4689320.035,327833.8297,19T
1.58095E+18,148,1.58095E+18,,42.33709717,-71.0898819,-26.89999962,4689320.035,327833.8297,19T
1.58095E+18,149,1.58095E+18,,42.33709717,-71.0898819,-26.89999962,4689320.035,327833.8297,19T
1.58095E+18,150,1.58095E+18,,42.33709717,-71.0898819,-26.89999962,4689320.035,327833.8297,19T
1.58095E+18,151,1.58095E+18,,42.33709717,-71.0898819,-26.79999924,4689320.035,327833.8297,19T
1.58095E+18,152,1.58095E+18,,42.33709717,-71.0898819,-26.79999924,4689320.035,327833.8297,19T
1.58095E+18,153,1.58095E+18,,42.33709717,-71.0898819,-26.79999924,4689320.035,327833.8297,19T
1.58095E+18,154,1.58095E+18,,42.33709717,-71.0898819,-26.79999924,4689320.035,327833.8297,19T
1.58095E+18,155,1.58095E+18,,42.33709717,-71.0898819,-26.79999924,4689320.035,327833.8297,19T
1.58095E+18,156,1.58095E+18,,42.33709717,-71.0898819,-26.69999886,4689320.035,327833.8297,19T
1.58095E+18,157,1.58095E+18,,42.33709717,-71.0898819,-26.69999886,4689320.035,327833.8297,19T
1.58095E+18,158,1.58095E+18,,42.33709717,-71.0898819,-26.69999886,4689320.035,327833.8297,19T
1.58095E+18,159,1.58095E+18,,42.33709717,-71.0898819,-26.69999886,4689320.035,327833.8297,19T
1.58095E+18,160,1.58095E+18,,42.33709717,-71.0898819,-26.69999886,4689320.035,327833.8297,19T
1.58095E+18,161,1.58095E+18,,42.33709717,-71.0898819,-26.59999847,4689320.035,327833.8297,19T
1.58095E+18,162,1.58095E+18,,42.33709717,-71.0898819,-26.59999847,4689320.035,327833.8297,19T
1.58095E+18,163,1.58095E+18,,42.33710098,-71.0898819,-26.59999847,4689320.459,327833.8401,19T
1.58095E+18,164,1.58095E+18,,42.33710098,-71.0898819,-26.59999847,4689320.459,327833.8401,19T
1.58095E+18,165,1.58095E+18,,42.33710098,-71.0898819,-26.59999847,4689320.459,327833.8401,19T
1.58095E+18,166,1.58095E+18,,42.33710098,-71.0898819,-26.59999847,4689320.459,327833.8401,19T
1.58095E+18,167,1.58095E+18,,42.33710098,-71.0898819,-26.5,4689320.459,327833.8401,19T
1.58095E+18,168,1.58095E+18,,42.33710098,-71.0898819,-26.5,4689320.459,327833.8401,19T
1.58095E+18,169,1.58095E+18,,42.33710098,-71.0898819,-26.5,4689320.459,327833.8401,19T
1.58095E+18,170,1.58095E+18,,42.33710098,-71.0898819,-26.5,4689320.459,327833.8401,19T
1.58095E+18,171,1.58095E+18,,42.33710098,-71.0898819,-26.5,4689320.459,327833.8401,19T
1.58095E+18,172,1.58095E+18,,42.33710098,-71.0898819,-26.5,4689320.459,327833.8401,19T
1.58095E+18,173,1.58095E+18,,42.33710098,-71.0898819,-26.5,4689320.459,327833.8401,19T
1.58095E+18,174,1.58095E+18,,42.33710098,-71.0898819,-26.5,4689320.459,327833.8401,19T
1.58095E+18,175,1.58095E+18,,42.33710098,-71.0898819,-26.5,4689320.459,327833.8401,19T
1.58095E+18,176,1.58095E+18,,42.33710098,-71.0898819,-26.5,4689320.459,327833.8401,19T
1.58095E+18,177,1.58095E+18,,42.33710098,-71.0898819,-26.5,4689320.459,327833.8401,19T
1.58095E+18,178,1.58095E+18,,42.33710098,-71.0898819,-26.5,4689320.459,327833.8401,19T
1.58095E+18,179,1.58095E+18,,42.33710098,-71.0898819,-26.5,4689320.459,327833.8401,19T
1.58095E+18,180,1.58095E+18,,42.33710098,-71.0898819,-26.5,4689320.459,327833.8401,19T
1.58095E+18,181,1.58095E+18,,42.33710098,-71.0898819,-26.39999962,4689320.459,327833.8401,19T
1.58095E+18,182,1.58095E+18,,42.33710098,-71.0898819,-26.39999962,4689320.459,327833.8401,19T
1.58095E+18,183,1.58095E+18,,42.33710098,-71.0898819,-26.39999962,4689320.459,327833.8401,19T
1.58095E+18,184,1.58095E+18,,42.33710098,-71.0898819,-26.39999962,4689320.459,327833.8401,19T
1.58095E+18,185,1.58095E+18,,42.33710098,-71.0898819,-26.39999962,4689320.459,327833.8401,19T
1.58095E+18,186,1.58095E+18,,42.33710098,-71.0898819,-26.39999962,4689320.459,327833.8401,19T
1.58095E+18,187,1.58095E+18,,42.33710098,-71.0898819,-26.39999962,4689320.459,327833.8401,19T
1.58095E+18,188,1.58095E+18,,42.3371048,-71.0898819,-26.29999924,4689320.883,327833.8505,19T
1.58095E+18,189,1.58095E+18,,42.33710098,-71.0898819,-26.19999886,4689320.459,327833.8401,19T
1.58095E+18,190,1.58095E+18,,42.33709335,-71.0898819,-26,4689319.612,327833.8193,19T
1.58095E+18,191,1.58095E+18,,42.33708191,-71.08987427,-25.69999886,4689318.326,327834.4166,19T
1.58095E+18,192,1.58095E+18,,42.33706284,-71.08986664,-25.59999847,4689316.192,327834.9931,19T
1.58095E+18,193,1.58095E+18,,42.33703995,-71.08985138,-25.39999962,4689313.62,327836.1877,19T
1.58095E+18,194,1.58095E+18,,42.33702087,-71.08982849,-25.19999886,4689311.455,327838.0213,19T
1.58095E+18,195,1.58095E+18,,42.3370018,-71.08979797,-25,4689309.276,327840.4834,19T
1.58095E+18,196,1.58095E+18,,42.33698654,-71.08975983,-25,4689307.504,327843.5845,19T
1.58095E+18,197,1.58095E+18,,42.33698273,-71.08971405,-24.89999962,4689306.988,327847.3453,19T
1.58095E+18,198,1.58095E+18,,42.33698273,-71.08966827,-25.09999847,4689306.895,327851.1166,19T
1.58095E+18,199,1.58095E+18,,42.33699417,-71.08963013,-25.09999847,4689308.089,327854.2905,19T
1.58095E+18,200,1.58095E+18,,42.33700943,-71.08959198,-25,4689309.706,327857.4749,19T
1.58095E+18,201,1.58095E+18,,42.33703232,-71.08956146,-25.19999886,4689312.186,327860.0515,19T
1.58095E+18,202,1.58095E+18,,42.33705902,-71.0895462,-25.19999886,4689315.12,327861.3815,19T
1.58095E+18,203,1.58095E+18,,42.33708954,-71.08953094,-25.29999924,4689318.478,327862.7218,19T
1.58095E+18,204,1.58095E+18,,42.33711624,-71.08953094,-25.29999924,4689321.443,327862.7947,19T
1.58095E+18,205,1.58095E+18,,42.33714676,-71.08953857,-25.39999962,4689324.847,327862.2494,19T
1.58095E+18,206,1.58095E+18,,42.33717346,-71.08956146,-25.5,4689327.859,327860.4366,19T
1.58095E+18,207,1.58095E+18,,42.33719635,-71.08959198,-25.59999847,4689330.462,327857.9849,19T
1.58095E+18,208,1.58095E+18,,42.33720779,-71.08963013,-25.79999924,4689331.81,327854.8734,19T
1.58095E+18,209,1.58095E+18,,42.33721161,-71.0896759,-26,4689332.326,327851.1126,19T
1.58095E+18,210,1.58095E+18,,42.33720398,-71.08971405,-26.19999886,4689331.556,327847.9491,19T
1.58095E+18,211,1.58095E+18,,42.33718872,-71.0897522,-26.39999962,4689329.939,327844.7647,19T
1.58095E+18,212,1.58095E+18,,42.33716965,-71.08978271,-26.59999847,4689327.883,327842.1985,19T
1.58095E+18,213,1.58095E+18,,42.33714294,-71.08979797,-26.5,4689324.949,327840.8686,19T
1.58095E+18,214,1.58095E+18,,42.33711624,-71.0898056,-26.09999847,4689321.999,327840.1672,19T
1.58095E+18,215,1.58095E+18,,42.33708954,-71.08979797,-25.69999886,4689319.018,327840.7228,19T
1.58095E+18,216,1.58095E+18,,42.33706284,-71.08979034,-25.29999924,4689316.038,327841.2785,19T
1.58095E+18,217,1.58095E+18,,42.33703995,-71.08978271,-24.89999962,4689313.481,327841.8446,19T
1.58095E+18,218,1.58095E+18,,42.33702087,-71.08975983,-24.5,4689311.316,327843.6782,19T
1.58095E+18,219,1.58095E+18,,42.33700562,-71.08973694,-24.09999847,4689309.576,327845.5222,19T
1.58095E+18,220,1.58095E+18,,42.33699417,-71.08970642,-23.79999924,4689308.243,327848.0051,19T
1.58095E+18,221,1.58095E+18,,42.33698654,-71.0896759,-23.59999847,4689307.334,327850.4984,19T
1.58095E+18,222,1.58095E+18,,42.33698273,-71.08964539,-23.5,4689306.849,327853.0022,19T
1.58095E+18,223,1.58095E+18,,42.33698654,-71.08960724,-23.39999962,4689307.195,327856.1553,19T
1.58095E+18,224,1.58095E+18,,42.33699417,-71.08957672,-23.29999924,4689307.981,327858.6903,19T
1.58095E+18,225,1.58095E+18,,42.33701324,-71.0895462,-23.19999886,4689310.037,327861.2565,19T
1.58095E+18,226,1.58095E+18,,42.33703613,-71.08952332,-23.19999886,4689312.532,327863.2046,19T
1.58095E+18,227,1.58095E+18,,42.33706284,-71.08950806,-23.09999847,4689315.466,327864.5346,19T
1.58095E+18,228,1.58095E+18,,42.33708954,-71.08950043,-23.09999847,4689318.416,327865.236,19T
1.58095E+18,229,1.58095E+18,,42.33712006,-71.08950806,-23.09999847,4689321.82,327864.6907,19T
1.58095E+18,230,1.58095E+18,,42.33714676,-71.08952332,-22.69999886,4689324.816,327863.5065,19T
1.58095E+18,231,1.58095E+18,,42.33716965,-71.0895462,-22.5,4689327.404,327861.6833,19T
1.58095E+18,232,1.58095E+18,,42.33718872,-71.08957672,-22.29999924,4689329.584,327859.2212,19T
1.58095E+18,233,1.58095E+18,,42.33720398,-71.08960724,-22.59999847,4689331.34,327856.7487,19T
1.58095E+18,234,1.58095E+18,,42.33721161,-71.08965302,-22.89999962,4689332.28,327852.9982,19T
1.58095E+18,235,1.58095E+18,,42.33720779,-71.08969879,-23.09999847,4689331.949,327849.2166,19T
1.58095E+18,236,1.58095E+18,,42.33719635,-71.08973694,-23.29999924,4689330.755,327846.0426,19T
1.58095E+18,237,1.58095E+18,,42.33717346,-71.08977509,-23.5,4689328.291,327842.8375,19T
1.58095E+18,238,1.58095E+18,,42.33714294,-71.08979797,-23.69999886,4689324.949,327840.8686,19T
1.58095E+18,239,1.58095E+18,,42.3371048,-71.0898056,-23.69999886,4689320.728,327840.1359,19T
1.58095E+18,240,1.58095E+18,,42.33707047,-71.0898056,-23.5,4689316.916,327840.0422,19T
1.58095E+18,241,1.58095E+18,,42.33703995,-71.08978271,-23.29999924,4689313.481,327841.8446,19T
1.58095E+18,242,1.58095E+18,,42.33701706,-71.08975983,-23.09999847,4689310.893,327843.6678,19T
1.58095E+18,243,1.58095E+18,,42.3370018,-71.08972168,-23,4689309.121,327846.7688,19T
1.58095E+18,244,1.58095E+18,,42.33699036,-71.08968353,-23,4689307.773,327849.8803,19T
1.58095E+18,245,1.58095E+18,,42.33699417,-71.08963776,-23.09999847,4689308.104,327853.662,19T
1.58095E+18,246,1.58095E+18,,42.3370018,-71.08959961,-23.09999847,4689308.874,327856.8255,19T
1.58095E+18,247,1.58095E+18,,42.33701706,-71.08956909,-23.09999847,4689310.507,327859.3813,19T
1.58095E+18,248,1.58095E+18,,42.33703995,-71.08953857,-23.09999847,4689312.986,327861.9579,19T
1.58095E+18,249,1.58095E+18,,42.33706665,-71.08952332,-23.19999886,4689315.921,327863.2879,19T
1.58095E+18,250,1.58095E+18,,42.33709717,-71.08951569,-23.09999847,4689319.294,327863.9997,19T
1.58095E+18,251,1.58095E+18,,42.33712769,-71.08951569,-23.19999886,4689322.683,327864.083,19T
1.58095E+18,252,1.58095E+18,,42.33715439,-71.08953094,-22.79999924,4689325.679,327862.8988,19T
1.58095E+18,253,1.58095E+18,,42.33717728,-71.08955383,-22.59999847,4689328.267,327861.0756,19T
1.58095E+18,254,1.58095E+18,,42.33719254,-71.08959198,-22.5,4689330.038,327857.9745,19T
1.58095E+18,255,1.58095E+18,,42.33720398,-71.08963013,-22.69999886,4689331.386,327854.863,19T
1.58095E+18,256,1.58095E+18,,42.33720779,-71.08966827,-22.79999924,4689331.887,327851.7307,19T
1.58095E+18,257,1.58095E+18,,42.33720016,-71.08970642,-23.09999847,4689331.117,327848.5672,19T
1.58095E+18,258,1.58095E+18,,42.33718872,-71.08974457,-23.29999924,4689329.924,327845.3933,19T
1.58095E+18,259,1.58095E+18,,42.33716965,-71.08977509,-23.5,4689327.867,327842.8271,19T
1.58095E+18,260,1.58095E+18,,42.33714294,-71.08979797,-23.69999886,4689324.949,327840.8686,19T
1.58095E+18,261,1.58095E+18,,42.33710861,-71.08981323,-23.69999886,4689321.167,327839.5178,19T
1.58095E+18,262,1.58095E+18,,42.33707809,-71.08981323,-23.59999847,4689317.778,327839.4345,19T
1.58095E+18,263,1.58095E+18,,42.33704758,-71.08979797,-23.5,4689314.359,327840.6083,19T
1.58095E+18,264,1.58095E+18,,42.33702087,-71.08977509,-23.29999924,4689311.347,327842.4211,19T
1.58095E+18,265,1.58095E+18,,42.3370018,-71.08974457,-23.09999847,4689309.168,327844.8832,19T
1.58095E+18,266,1.58095E+18,,42.33698654,-71.08970642,-23,4689307.396,327847.9843,19T
1.58095E+18,267,1.58095E+18,,42.33698273,-71.08966064,-22.89999962,4689306.88,327851.7451,19T
1.58095E+18,268,1.58095E+18,,42.33698654,-71.0896225,-22.89999962,4689307.226,327854.8983,19T
1.58095E+18,269,1.58095E+18,,42.3370018,-71.08958435,-22.79999924,4689308.843,327858.0826,19T
1.58095E+18,270,1.58095E+18,,42.33702087,-71.0895462,-22.69999886,4689310.884,327861.2774,19T
1.58095E+18,271,1.58095E+18,,42.33704758,-71.08952332,-22.69999886,4689313.803,327863.2359,19T
1.58095E+18,272,1.58095E+18,,42.33707809,-71.08951569,-22.79999924,4689317.176,327863.9477,19T
1.58095E+18,273,1.58095E+18,,42.33710861,-71.08950806,-23,4689320.549,327864.6595,19T
1.58095E+18,274,1.58095E+18,,42.33713913,-71.08952332,-23.19999886,4689323.969,327863.4857,19T
1.58095E+18,275,1.58095E+18,,42.33716583,-71.08953857,-23.29999924,4689326.965,327862.3014,19T
1.58095E+18,276,1.58095E+18,,42.33718872,-71.08956909,-23.5,4689329.568,327859.8497,19T
1.58095E+18,277,1.58095E+18,,42.33720398,-71.08961487,-23.59999847,4689331.355,327856.1201,19T
1.58095E+18,278,1.58095E+18,,42.33721161,-71.08965302,-23.79999924,4689332.28,327852.9982,19T
1.58095E+18,279,1.58095E+18,,42.33720779,-71.08969879,-23.89999962,4689331.949,327849.2166,19T
1.58095E+18,280,1.58095E+18,,42.33719254,-71.08973694,-24.09999847,4689330.332,327846.0322,19T
1.58095E+18,281,1.58095E+18,,42.33716965,-71.08977509,-24.19999886,4689327.867,327842.8271,19T
1.58095E+18,282,1.58095E+18,,42.33714294,-71.08979797,-24.29999924,4689324.949,327840.8686,19T
1.58095E+18,283,1.58095E+18,,42.3371048,-71.08981323,-24.29999924,4689320.744,327839.5074,19T
1.58095E+18,284,1.58095E+18,,42.33707047,-71.08981323,-23.79999924,4689316.931,327839.4137,19T
1.58095E+18,285,1.58095E+18,,42.33703995,-71.08979797,-23.59999847,4689313.512,327840.5875,19T
1.58095E+18,286,1.58095E+18,,42.33701324,-71.08977509,-23.29999924,4689310.5,327842.4003,19T
1.58095E+18,287,1.58095E+18,,42.33699417,-71.08973694,-23.09999847,4689308.305,327845.4909,19T
1.58095E+18,288,1.58095E+18,,42.33698273,-71.08969879,-22.79999924,4689306.957,327848.6024,19T
1.58095E+18,289,1.58095E+18,,42.33697891,-71.08965302,-22.69999886,4689306.441,327852.3633,19T
1.58095E+18,290,1.58095E+18,,42.33698654,-71.08961487,-22.59999847,4689307.211,327855.5268,19T
1.58095E+18,291,1.58095E+18,,42.3370018,-71.08957672,-22.59999847,4689308.828,327858.7111,19T
1.58095E+18,292,1.58095E+18,,42.33702469,-71.0895462,-22.5,4689311.308,327861.2878,19T
1.58095E+18,293,1.58095E+18,,42.33705521,-71.08952332,-22.39999962,4689314.65,327863.2567,19T
1.58095E+18,294,1.58095E+18,,42.33708572,-71.08950806,-22.39999962,4689318.008,327864.597,19T
1.58095E+18,295,1.58095E+18,,42.33712006,-71.08950806,-22.5,4689321.82,327864.6907,19T
1.58095E+18,296,1.58095E+18,,42.33715057,-71.08952332,-22.29999924,4689325.24,327863.5169,19T
1.58095E+18,297,1.58095E+18,,42.33717728,-71.0895462,-22.29999924,4689328.251,327861.7041,19T
1.58095E+18,298,1.58095E+18,,42.33720779,-71.08956909,-22.29999924,4689331.686,327859.9018,19T
1.58095E+18,299,1.58095E+18,,42.33721161,-71.08961487,-22.5,4689332.203,327856.1409,19T
1.58095E+18,300,1.58095E+18,,42.33721924,-71.08966827,-22.59999847,4689333.158,327851.762,19T
1.58095E+18,301,1.58095E+18,,42.33721161,-71.08970642,-22.59999847,4689332.388,327848.5984,19T
1.58095E+18,302,1.58095E+18,,42.33719635,-71.08974457,-22.59999847,4689330.771,327845.4141,19T
1.58095E+18,303,1.58095E+18,,42.33717346,-71.08977509,-22.69999886,4689328.291,327842.8375,19T
1.58095E+18,304,1.58095E+18,,42.33715057,-71.08979797,-22.69999886,4689325.796,327840.8894,19T
1.58095E+18,305,1.58095E+18,,42.33712006,-71.08981323,-23,4689322.438,327839.549,19T
1.58095E+18,306,1.58095E+18,,42.33709335,-71.08982086,-23,4689319.488,327838.8476,19T
1.58095E+18,307,1.58095E+18,,42.33706284,-71.08982086,-23.09999847,4689316.1,327838.7643,19T
1.58095E+18,308,1.58095E+18,,42.33703995,-71.0898056,-23.19999886,4689313.527,327839.959,19T
1.58095E+18,309,1.58095E+18,,42.33701706,-71.08978271,-23.19999886,4689310.939,327841.7821,19T
1.58095E+18,310,1.58095E+18,,42.33699799,-71.08975983,-23.19999886,4689308.775,327843.6157,19T
1.58095E+18,311,1.58095E+18,,42.33698273,-71.08972168,-23.09999847,4689307.003,327846.7168,19T
1.58095E+18,312,1.58095E+18,,42.3369751,-71.08968353,-23.09999847,4689306.079,327849.8387,19T
1.58095E+18,313,1.58095E+18,,42.33697891,-71.08963776,-22.89999962,4689306.41,327853.6203,19T
1.58095E+18,314,1.58095E+18,,42.33698654,-71.08959961,-22.89999962,4689307.18,327856.7839,19T
1.58095E+18,315,1.58095E+18,,42.33700943,-71.08956146,-22.89999962,4689309.644,327859.989,19T
1.58095E+18,316,1.58095E+18,,42.33703613,-71.08953094,-22.79999924,4689312.547,327862.5761,19T
1.58095E+18,317,1.58095E+18,,42.33707047,-71.08951569,-22.89999962,4689316.329,327863.9268,19T
1.58095E+18,318,1.58095E+18,,42.3371048,-71.08951569,-22.89999962,4689320.141,327864.0205,19T
1.58095E+18,319,1.58095E+18,,42.33714294,-71.08952332,-22.69999886,4689324.393,327863.4961,19T
1.58095E+18,320,1.58095E+18,,42.33717728,-71.08953857,-22.5,4689328.236,327862.3327,19T
1.58095E+18,321,1.58095E+18,,42.33721924,-71.0895462,-22.59999847,4689332.911,327861.8186,19T
1.58095E+18,322,1.58095E+18,,42.33726501,-71.08956909,-22.69999886,4689338.04,327860.0579,19T
1.58095E+18,323,1.58095E+18,,42.33731461,-71.08958435,-22.79999924,4689343.578,327858.9361,19T
1.58095E+18,324,1.58095E+18,,42.3373642,-71.08959961,-23,4689349.115,327857.8144,19T
1.58095E+18,325,1.58095E+18,,42.3374176,-71.0896225,-23.09999847,4689355.092,327856.0745,19T
1.58095E+18,326,1.58095E+18,,42.33747101,-71.08964539,-23.09999847,4689361.069,327854.3346,19T
1.58095E+18,327,1.58095E+18,,42.33752441,-71.08966827,-23.09999847,4689367.045,327852.5947,19T
1.58095E+18,328,1.58095E+18,,42.33758163,-71.08969879,-23,4689373.461,327850.2367,19T
1.58095E+18,329,1.58095E+18,,42.33763504,-71.08972168,-22.79999924,4689379.438,327848.4969,19T
1.58095E+18,330,1.58095E+18,,42.33769226,-71.08974457,-22.59999847,4689385.838,327846.7674,19T
1.58095E+18,331,1.58095E+18,,42.3377533,-71.08976746,-22.39999962,4689392.662,327845.0483,19T
1.58095E+18,332,1.58095E+18,,42.33781052,-71.08978271,-22.19999886,4689399.047,327843.9474,19T
1.58095E+18,333,1.58095E+18,,42.33787155,-71.08979797,-22,4689405.855,327842.8569,19T
1.58095E+18,334,1.58095E+18,,42.33792877,-71.08981323,-21.39999962,4689412.24,327841.756,19T
1.58095E+18,335,1.58095E+18,,42.33797836,-71.08983612,-20.89999962,4689417.793,327840.0057,19T
1.58095E+18,336,1.58095E+18,,42.33803558,-71.08984375,-20.59999847,4689424.162,327839.5334,19T
1.58095E+18,337,1.58095E+18,,42.33808899,-71.08985901,-20.19999886,4689430.123,327838.4221,19T
1.58095E+18,338,1.58095E+18,,42.3381424,-71.08987427,-19.5,4689436.085,327837.3107,19T
1.58095E+18,339,1.58095E+18,,42.33818817,-71.08988953,-18.69999886,4689441.199,327836.1786,19T
1.58095E+18,340,1.58095E+18,,42.33824158,-71.08990479,-18,4689447.16,327835.0673,19T
1.58095E+18,341,1.58095E+18,,42.33829498,-71.08992767,-17.5,4689453.136,327833.3275,19T
1.58095E+18,342,1.58095E+18,,42.33834457,-71.08994293,-17.19999886,4689458.674,327832.2057,19T
1.58095E+18,343,1.58095E+18,,42.33838654,-71.08997345,-17.19999886,4689463.395,327829.8061,19T
1.58095E+18,344,1.58095E+18,,42.33843613,-71.09000397,-17.09999847,4689468.964,327827.4274,19T
1.58095E+18,345,1.58095E+18,,42.33848572,-71.09004211,-16.69999886,4689474.548,327824.4201,19T
1.58095E+18,346,1.58095E+18,,42.33853912,-71.090065,-16.29999924,4689480.524,327822.6803,19T
1.58095E+18,347,1.58095E+18,,42.33858871,-71.09009552,-15.79999924,4689486.093,327820.3015,19T
1.58095E+18,348,1.58095E+18,,42.33863831,-71.09012604,-15.39999962,4689491.661,327817.9228,19T
1.58095E+18,349,1.58095E+18,,42.33868408,-71.09016418,-14.89999962,4689496.822,327814.9051,19T
1.58095E+18,350,1.58095E+18,,42.33873749,-71.09018707,-14.59999847,4689502.798,327813.1653,19T
1.58095E+18,351,1.58095E+18,,42.33879089,-71.09020996,-14.89999962,4689508.775,327811.4255,19T
1.58095E+18,352,1.58095E+18,,42.33883667,-71.09024048,-14.79999924,4689513.92,327809.0363,19T
1.58095E+18,353,1.58095E+18,,42.33889008,-71.09026337,-15.09999847,4689519.897,327807.2965,19T
1.58095E+18,354,1.58095E+18,,42.33894348,-71.09028625,-15.19999886,4689525.873,327805.5567,19T
1.58095E+18,355,1.58095E+18,,42.33899307,-71.09030914,-15.5,4689531.426,327803.8065,19T
1.58095E+18,356,1.58095E+18,,42.33904648,-71.09033203,-15.5,4689537.403,327802.0667,19T
1.58095E+18,357,1.58095E+18,,42.33911133,-71.09035492,-14.69999886,4689544.65,327800.3582,19T
1.58095E+18,358,1.58095E+18,,42.33917236,-71.09037018,-14.39999962,4689551.459,327799.2678,19T
1.58095E+18,359,1.58095E+18,,42.33922958,-71.09039307,-14.79999924,4689557.859,327797.5384,19T
1.58095E+18,360,1.58095E+18,,42.33928299,-71.09040833,-15.59999847,4689563.82,327796.4272,19T
1.58095E+18,361,1.58095E+18,,42.33932495,-71.09043121,-16.29999924,4689568.526,327794.6562,19T
1.58095E+18,362,1.58095E+18,,42.33935928,-71.09044647,-16.19999886,4689572.369,327793.4928,19T
1.58095E+18,363,1.58095E+18,,42.33938217,-71.09046173,-15.89999962,4689574.942,327792.2983,19T
1.58095E+18,364,1.58095E+18,,42.33940125,-71.09046173,-15.59999847,4689577.06,327792.3504,19T
1.58095E+18,365,1.58095E+18,,42.33940887,-71.09046936,-15,4689577.923,327791.7427,19T
1.58095E+18,366,1.58095E+18,,42.3394165,-71.09046936,-15.09999847,4689578.77,327791.7635,19T
1.58095E+18,367,1.58095E+18,,42.3394165,-71.09046936,-14.89999962,4689578.77,327791.7635,19T
1.58095E+18,368,1.58095E+18,,42.3394165,-71.09046936,-14.89999962,4689578.77,327791.7635,19T
1.58095E+18,369,1.58095E+18,,42.3394165,-71.09046936,-14.89999962,4689578.77,327791.7635,19T
1.58095E+18,370,1.58095E+18,,42.3394165,-71.09046936,-14.89999962,4689578.77,327791.7635,19T
1.58095E+18,371,1.58095E+18,,42.3394165,-71.09046936,-14.89999962,4689578.77,327791.7635,19T
1.58095E+18,372,1.58095E+18,,42.3394165,-71.09046936,-14.89999962,4689578.77,327791.7635,19T
1.58095E+18,373,1.58095E+18,,42.3394165,-71.09046936,-14.89999962,4689578.77,327791.7635,19T
1.58095E+18,374,1.58095E+18,,42.33942032,-71.09046936,-14.29999924,4689579.193,327791.7739,19T
1.58095E+18,375,1.58095E+18,,42.33942032,-71.09047699,-13.79999924,4689579.209,327791.1454,19T
1.58095E+18,376,1.58095E+18,,42.33942413,-71.09047699,-13.29999924,4689579.632,327791.1558,19T
1.58095E+18,377,1.58095E+18,,42.33942795,-71.09047699,-13,4689580.056,327791.1662,19T
1.58095E+18,378,1.58095E+18,,42.33943176,-71.09047699,-12.69999886,4689580.48,327791.1766,19T
1.58095E+18,379,1.58095E+18,,42.33943176,-71.09047699,-12.19999886,4689580.48,327791.1766,19T
1.58095E+18,380,1.58095E+18,,42.33943176,-71.09047699,-12.29999924,4689580.48,327791.1766,19T
1.58095E+18,381,1.58095E+18,,42.33943558,-71.09047699,-12.19999886,4689580.903,327791.187,19T
1.58095E+18,382,1.58095E+18,,42.33943939,-71.09047699,-11.79999924,4689581.327,327791.1975,19T
1.58095E+18,383,1.58095E+18,,42.33944702,-71.09048462,-11.59999847,4689582.189,327790.5898,19T
1.58095E+18,384,1.58095E+18,,42.33946228,-71.09049988,-11.29999924,4689583.915,327789.3744,19T
1.58095E+18,385,1.58095E+18,,42.33948135,-71.09050751,-10.79999924,4689586.048,327788.7979,19T
1.58095E+18,386,1.58095E+18,,42.33950424,-71.09052277,-10.5,4689588.621,327787.6034,19T
1.58095E+18,387,1.58095E+18,,42.33953476,-71.09053802,-10.29999924,4689592.04,327786.4297,19T
1.58095E+18,388,1.58095E+18,,42.33956528,-71.09054565,-10.09999847,4689595.444,327785.8845,19T
1.58095E+18,389,1.58095E+18,,42.33959198,-71.09053802,-10,4689598.394,327786.5859,19T
1.58095E+18,390,1.58095E+18,,42.33961487,-71.0905304,-10.29999924,4689600.92,327787.2769,19T
1.58095E+18,391,1.58095E+18,,42.33963013,-71.09050751,-10.79999924,4689602.568,327789.2041,19T
1.58095E+18,392,1.58095E+18,,42.3396492,-71.09046936,-11.39999962,4689604.609,327792.3987,19T
1.58095E+18,393,1.58095E+18,,42.33966827,-71.09042358,-11.69999886,4689606.634,327796.2219,19T
1.58095E+18,394,1.58095E+18,,42.33969498,-71.09037018,-12.09999847,4689609.491,327800.6944,19T
1.58095E+18,395,1.58095E+18,,42.33972168,-71.09030151,-12.29999924,4689612.317,327806.424,19T
1.58095E+18,396,1.58095E+18,,42.3397522,-71.09022522,-12.39999962,4689615.551,327812.7924,19T
1.58095E+18,397,1.58095E+18,,42.33978653,-71.09014893,-12.69999886,4689619.209,327819.1713,19T
1.58095E+18,398,1.58095E+18,,42.33981705,-71.090065,-13,4689622.428,327826.1682,19T
1.58095E+18,399,1.58095E+18,,42.33984756,-71.08998871,-13.19999886,4689625.662,327832.5367,19T
1.58095E+18,400,1.58095E+18,,42.3398819,-71.08990479,-13.39999962,4689629.305,327839.5441,19T
1.58095E+18,401,1.58095E+18,,42.33991623,-71.08982086,-13.39999962,4689632.947,327846.5514,19T
1.58095E+18,402,1.58095E+18,,42.33994675,-71.08973694,-13.29999924,4689636.166,327853.5483,19T
1.58095E+18,403,1.58095E+18,,42.33998489,-71.08965302,-13.39999962,4689640.232,327860.5661,19T
1.58095E+18,404,1.58095E+18,,42.34002304,-71.08956909,-13.59999847,4689644.298,327867.5838,19T
1.58095E+18,405,1.58095E+18,,42.34006119,-71.08947754,-13.59999847,4689648.349,327875.2301,19T
1.58095E+18,406,1.58095E+18,,42.34009552,-71.08938599,-13.5,4689651.976,327882.8659,19T
1.58095E+18,407,1.58095E+18,,42.34012985,-71.0892868,-13.29999924,4689655.587,327891.1302,19T
1.58095E+18,408,1.58095E+18,,42.340168,-71.08918762,-13.09999847,4689659.622,327899.405,19T
1.58095E+18,409,1.58095E+18,,42.34020615,-71.08908844,-12.89999962,4689663.658,327907.6797,19T
1.58095E+18,410,1.58095E+18,,42.34024048,-71.08898926,-12.59999847,4689667.269,327915.944,19T
1.58095E+18,411,1.58095E+18,,42.34027481,-71.08889008,-12,4689670.881,327924.2083,19T
1.58095E+18,412,1.58095E+18,,42.34031296,-71.08879089,-11.5,4689674.916,327932.483,19T
1.58095E+18,413,1.58095E+18,,42.34034729,-71.08869171,-11.09999847,4689678.528,327940.7473,19T
1.58095E+18,414,1.58095E+18,,42.34038544,-71.08859253,-10.79999924,4689682.563,327949.0219,19T
1.58095E+18,415,1.58095E+18,,42.34042358,-71.08850098,-10.59999847,4689686.614,327956.6681,19T
1.58095E+18,416,1.58095E+18,,42.34045792,-71.08840179,-10.39999962,4689690.225,327964.9323,19T
1.58095E+18,417,1.58095E+18,,42.34049606,-71.08831024,-10.29999924,4689694.276,327972.5785,19T
1.58095E+18,418,1.58095E+18,,42.34053802,-71.08821869,-10.19999886,4689698.75,327980.235,19T
1.58095E+18,419,1.58095E+18,,42.34057999,-71.08811951,-10,4689703.209,327988.52,19T
1.58095E+18,420,1.58095E+18,,42.34061813,-71.08802795,-10,4689707.26,327996.1661,19T
1.58095E+18,421,1.58095E+18,,42.34065628,-71.08792877,-9.899999619,4689711.295,328004.4407,19T
1.58095E+18,422,1.58095E+18,,42.34069061,-71.08782959,-9.799999237,4689714.907,328012.7049,19T
1.58095E+18,423,1.58095E+18,,42.34072495,-71.08773041,-9.699998856,4689718.519,328020.9691,19T
1.58095E+18,424,1.58095E+18,,42.34076309,-71.08763886,-9.599998474,4689722.569,328028.6152,19T
1.58095E+18,425,1.58095E+18,,42.34079742,-71.08753967,-9.5,4689726.181,328036.8794,19T
1.58095E+18,426,1.58095E+18,,42.34083557,-71.08744812,-9.299999237,4689730.232,328044.5254,19T
1.58095E+18,427,1.58095E+18,,42.3408699,-71.08734894,-9.099998474,4689733.844,328052.7896,19T
1.58095E+18,428,1.58095E+18,,42.34090424,-71.08725739,-9,4689737.471,328060.4252,19T
1.58095E+18,429,1.58095E+18,,42.34094238,-71.08716583,-9.099998474,4689741.522,328068.0712,19T
1.58095E+18,430,1.58095E+18,,42.34098816,-71.08707428,-10.09999847,4689746.42,328075.738,19T
1.58095E+18,431,1.58095E+18,,42.34103012,-71.08699036,-10.19999886,4689750.909,328082.7659,19T
1.58095E+18,432,1.58095E+18,,42.34107971,-71.08690643,-10.29999924,4689756.246,328089.8146,19T
1.58095E+18,433,1.58095E+18,,42.34112167,-71.08683014,-10.39999962,4689760.752,328096.214,19T
1.58095E+18,434,1.58095E+18,,42.34116745,-71.08676147,-10.29999924,4689765.696,328101.9953,19T
1.58095E+18,435,1.58095E+18,,42.34120178,-71.08670807,-10.09999847,4689769.4,328106.4883,19T
1.58095E+18,436,1.58095E+18,,42.34122849,-71.08666992,-10,4689772.288,328109.7036,19T
1.58095E+18,437,1.58095E+18,,42.34124374,-71.08664703,-9.799999237,4689773.937,328111.6307,19T
1.58095E+18,438,1.58095E+18,,42.34125519,-71.08662415,-9.699998856,4689775.161,328113.5474,19T
1.58095E+18,439,1.58095E+18,,42.341259,-71.08661652,-9.599998474,4689775.569,328114.1863,19T
1.58095E+18,440,1.58095E+18,,42.34126282,-71.08660889,-9.5,4689775.977,328114.8252,19T
1.58095E+18,441,1.58095E+18,,42.34126282,-71.08660889,-9.399999619,4689775.977,328114.8252,19T
1.58095E+18,442,1.58095E+18,,42.34126282,-71.08660126,-9.299999237,4689775.962,328115.4537,19T
1.58095E+18,443,1.58095E+18,,42.34126282,-71.08660126,-9.199998856,4689775.962,328115.4537,19T
1.58095E+18,444,1.58095E+18,,42.34126282,-71.08660126,-9.199998856,4689775.962,328115.4537,19T
1.58095E+18,445,1.58095E+18,,42.34126282,-71.08660126,-9.099998474,4689775.962,328115.4537,19T
1.58095E+18,446,1.58095E+18,,42.34126282,-71.08660126,-9,4689775.962,328115.4537,19T
1.58095E+18,447,1.58095E+18,,42.34126282,-71.08660126,-8.899999619,4689775.962,328115.4537,19T
1.58095E+18,448,1.58095E+18,,42.34126282,-71.08660126,-8.799999237,4689775.962,328115.4537,19T
1.58095E+18,449,1.58095E+18,,42.34126282,-71.08660126,-8.699998856,4689775.962,328115.4537,19T
1.58095E+18,450,1.58095E+18,,42.34126282,-71.08660126,-8.599998474,4689775.962,328115.4537,19T
1.58095E+18,451,1.58095E+18,,42.34126282,-71.08660126,-8.5,4689775.962,328115.4537,19T
1.58095E+18,452,1.58095E+18,,42.34126282,-71.08660126,-8.5,4689775.962,328115.4537,19T
1.58095E+18,453,1.58095E+18,,42.341259,-71.08660126,-8.5,4689775.538,328115.4433,19T
1.58095E+18,454,1.58095E+18,,42.341259,-71.08660126,-8.5,4689775.538,328115.4433,19T
1.58095E+18,455,1.58095E+18,,42.341259,-71.08660126,-8.5,4689775.538,328115.4433,19T
1.58095E+18,456,1.58095E+18,,42.341259,-71.08660126,-8.5,4689775.538,328115.4433,19T
1.58095E+18,457,1.58095E+18,,42.341259,-71.08660126,-8.5,4689775.538,328115.4433,19T
1.58095E+18,458,1.58095E+18,,42.341259,-71.08660126,-8.5,4689775.538,328115.4433,19T
1.58095E+18,459,1.58095E+18,,42.341259,-71.08660126,-8.5,4689775.538,328115.4433,19T
1.58095E+18,460,1.58095E+18,,42.341259,-71.08660126,-8.5,4689775.538,328115.4433,19T
1.58095E+18,461,1.58095E+18,,42.341259,-71.08660126,-8.399999619,4689775.538,328115.4433,19T
1.58095E+18,462,1.58095E+18,,42.341259,-71.08660126,-8.299999237,4689775.538,328115.4433,19T
1.58095E+18,463,1.58095E+18,,42.341259,-71.08660126,-8.299999237,4689775.538,328115.4433,19T
1.58095E+18,464,1.58095E+18,,42.341259,-71.08660126,-8.299999237,4689775.538,328115.4433,19T
1.58095E+18,465,1.58095E+18,,42.341259,-71.08660126,-8.199998856,4689775.538,328115.4433,19T
1.58095E+18,466,1.58095E+18,,42.341259,-71.08660126,-8.199998856,4689775.538,328115.4433,19T
1.58095E+18,467,1.58095E+18,,42.341259,-71.08660126,-8.099998474,4689775.538,328115.4433,19T
1.58095E+18,468,1.58095E+18,,42.341259,-71.08660126,-8,4689775.538,328115.4433,19T
1.58095E+18,469,1.58095E+18,,42.341259,-71.08660126,-7.899999619,4689775.538,328115.4433,19T
1.58095E+18,470,1.58095E+18,,42.341259,-71.08660126,-7.799999237,4689775.538,328115.4433,19T
1.58095E+18,471,1.58095E+18,,42.341259,-71.08660126,-7.699998856,4689775.538,328115.4433,19T
1.58095E+18,472,1.58095E+18,,42.34125519,-71.08660126,-7.599998474,4689775.115,328115.4329,19T
1.58095E+18,473,1.58095E+18,,42.34125519,-71.08660126,-7.599998474,4689775.115,328115.4329,19T
1.58095E+18,474,1.58095E+18,,42.34125519,-71.08660126,-7.699998856,4689775.115,328115.4329,19T
1.58095E+18,475,1.58095E+18,,42.341259,-71.08660126,-7.699998856,4689775.538,328115.4433,19T
1.58095E+18,476,1.58095E+18,,42.341259,-71.08660126,-7.699998856,4689775.538,328115.4433,19T
1.58095E+18,477,1.58095E+18,,42.341259,-71.08660126,-7.699998856,4689775.538,328115.4433,19T
1.58095E+18,478,1.58095E+18,,42.341259,-71.08660126,-7.799999237,4689775.538,328115.4433,19T
1.58095E+18,479,1.58095E+18,,42.341259,-71.08660126,-7.799999237,4689775.538,328115.4433,19T
1.58095E+18,480,1.58095E+18,,42.341259,-71.08660126,-7.799999237,4689775.538,328115.4433,19T
1.58095E+18,481,1.58095E+18,,42.341259,-71.08660126,-7.799999237,4689775.538,328115.4433,19T
1.58095E+18,482,1.58095E+18,,42.341259,-71.08660126,-7.799999237,4689775.538,328115.4433,19T
1.58095E+18,483,1.58095E+18,,42.341259,-71.08660126,-7.699998856,4689775.538,328115.4433,19T
1.58095E+18,484,1.58095E+18,,42.34125519,-71.08660126,-7.699998856,4689775.115,328115.4329,19T
1.58095E+18,485,1.58095E+18,,42.34125519,-71.08660126,-7.599998474,4689775.115,328115.4329,19T
1.58095E+18,486,1.58095E+18,,42.34125519,-71.08660126,-7.599998474,4689775.115,328115.4329,19T
1.58095E+18,487,1.58095E+18,,42.34126663,-71.08660126,-9.799999237,4689776.386,328115.4641,19T
1.58095E+18,488,1.58095E+18,,42.34127808,-71.08660126,-11.39999962,4689777.656,328115.4952,19T
1.58095E+18,489,1.58095E+18,,42.34129334,-71.08659363,-12.79999924,4689779.335,328116.1653,19T
1.58095E+18,490,1.58095E+18,,42.34132004,-71.08657074,-13.89999962,4689782.254,328118.1236,19T
1.58095E+18,491,1.58095E+18,,42.34135056,-71.08653259,-14.59999847,4689785.566,328121.3492,19T
1.58095E+18,492,1.58095E+18,,42.34138489,-71.08648682,-15.19999886,4689789.286,328125.2138,19T
1.58095E+18,493,1.58095E+18,,42.34141922,-71.08643341,-15.5,4689792.99,328129.7068,19T
1.58095E+18,494,1.58095E+18,,42.34145355,-71.08638,-15.69999886,4689796.694,328134.1999,19T
1.58095E+18,495,1.58095E+18,,42.3414917,-71.0863266,-16,4689800.822,328138.7033,19T
1.58095E+18,496,1.58095E+18,,42.34153366,-71.08627319,-16.19999886,4689805.374,328143.2171,19T
1.58095E+18,497,1.58095E+18,,42.34158325,-71.08621216,-16.5,4689810.757,328148.3802,19T
1.58095E+18,498,1.58095E+18,,42.34163284,-71.08615112,-16.79999924,4689816.141,328153.5433,19T
1.58095E+18,499,1.58095E+18,,42.34168243,-71.08609009,-17,4689821.524,328158.7064,19T
1.58095E+18,500,1.58095E+18,,42.34173584,-71.08602905,-17.19999886,4689827.331,328163.8798,19T
1.58095E+18,501,1.58095E+18,,42.34178925,-71.08596039,-17.39999962,4689833.122,328169.6818,19T
1.58095E+18,502,1.58095E+18,,42.34184265,-71.08589935,-17.19999886,4689838.929,328174.8552,19T
1.58095E+18,503,1.58095E+18,,42.34189606,-71.08583069,-17.19999886,4689844.721,328180.6571,19T
1.58095E+18,504,1.58095E+18,,42.34195328,-71.08576965,-17.19999886,4689850.951,328185.841,19T
1.58095E+18,505,1.58095E+18,,42.34200668,-71.08570862,-17.29999924,4689856.758,328191.0144,19T
1.58095E+18,506,1.58095E+18,,42.34205627,-71.08563995,-16.69999886,4689862.126,328196.8059,19T
1.58095E+18,507,1.58095E+18,,42.34210205,-71.08557892,-16.39999962,4689867.086,328201.9585,19T
1.58095E+18,508,1.58095E+18,,42.34215164,-71.08551788,-16.19999886,4689872.47,328207.1215,19T
1.58095E+18,509,1.58095E+18,,42.34220123,-71.08545685,-16.19999886,4689877.853,328212.2845,19T
1.58095E+18,510,1.58095E+18,,42.34224701,-71.08540344,-16.39999962,4689882.828,328216.8086,19T
1.58095E+18,511,1.58095E+18,,42.3422966,-71.08534241,-16.69999886,4689888.212,328221.9716,19T
1.58095E+18,512,1.58095E+18,,42.34233856,-71.08528137,-16.89999962,4689892.748,328227.1138,19T
1.58095E+18,513,1.58095E+18,,42.34238052,-71.08522034,-17.19999886,4689897.284,328232.256,19T
1.58095E+18,514,1.58095E+18,,42.3424263,-71.08516693,-17.29999924,4689902.259,328236.7801,19T
1.58095E+18,515,1.58095E+18,,42.34246826,-71.0851059,-17.5,4689906.795,328241.9222,19T
1.58095E+18,516,1.58095E+18,,42.34251022,-71.08506012,-17.5,4689911.363,328245.8074,19T
1.58095E+18,517,1.58095E+18,,42.34254074,-71.08502197,-17.5,4689914.674,328249.033,19T
1.58095E+18,518,1.58095E+18,,42.34255981,-71.08499908,-17.5,4689916.746,328250.9704,19T
1.58095E+18,519,1.58095E+18,,42.34257507,-71.0849762,-17.59999847,4689918.394,328252.8974,19T
1.58095E+18,520,1.58095E+18,,42.34257889,-71.08496857,-17.69999886,4689918.802,328253.5363,19T
1.58095E+18,521,1.58095E+18,,42.3425827,-71.08496857,-17.89999962,4689919.226,328253.5466,19T
1.58095E+18,522,1.58095E+18,,42.3425827,-71.08496857,-17.89999962,4689919.226,328253.5466,19T
1.58095E+18,523,1.58095E+18,,42.3425827,-71.08496857,-17.89999962,4689919.226,328253.5466,19T
1.58095E+18,524,1.58095E+18,,42.3425827,-71.08496857,-17.89999962,4689919.226,328253.5466,19T
1.58095E+18,525,1.58095E+18,,42.3425827,-71.08496857,-17.79999924,4689919.226,328253.5466,19T
1.58095E+18,526,1.58095E+18,,42.3425827,-71.08496857,-17.79999924,4689919.226,328253.5466,19T
1.58095E+18,527,1.58095E+18,,42.3425827,-71.08496857,-17.79999924,4689919.226,328253.5466,19T
1.58095E+18,528,1.58095E+18,,42.3425827,-71.08496857,-17.79999924,4689919.226,328253.5466,19T
1.58095E+18,529,1.58095E+18,,42.3425827,-71.08496857,-17.79999924,4689919.226,328253.5466,19T
1.58095E+18,530,1.58095E+18,,42.3425827,-71.08496857,-17.79999924,4689919.226,328253.5466,19T
1.58095E+18,531,1.58095E+18,,42.3425827,-71.08496857,-17.69999886,4689919.226,328253.5466,19T
1.58095E+18,532,1.58095E+18,,42.3425827,-71.08496857,-17.69999886,4689919.226,328253.5466,19T
1.58095E+18,533,1.58095E+18,,42.3425827,-71.08496857,-17.69999886,4689919.226,328253.5466,19T
1.58095E+18,534,1.58095E+18,,42.3425827,-71.08496857,-17.69999886,4689919.226,328253.5466,19T
1.58095E+18,535,1.58095E+18,,42.3425827,-71.08496857,-17.59999847,4689919.226,328253.5466,19T
1.58095E+18,536,1.58095E+18,,42.3425827,-71.08496857,-17.59999847,4689919.226,328253.5466,19T
1.58095E+18,537,1.58095E+18,,42.3425827,-71.08496857,-17.59999847,4689919.226,328253.5466,19T
1.58095E+18,538,1.58095E+18,,42.3425827,-71.08496857,-17.5,4689919.226,328253.5466,19T
1.58095E+18,539,1.58095E+18,,42.3425827,-71.08496857,-17.5,4689919.226,328253.5466,19T
1.58095E+18,540,1.58095E+18,,42.3425827,-71.08496857,-17.39999962,4689919.226,328253.5466,19T
1.58095E+18,541,1.58095E+18,,42.3425827,-71.08496857,-17.39999962,4689919.226,328253.5466,19T
1.58095E+18,542,1.58095E+18,,42.3425827,-71.08496857,-17.39999962,4689919.226,328253.5466,19T
1.58095E+18,543,1.58095E+18,,42.3425827,-71.08496857,-17.39999962,4689919.226,328253.5466,19T
1.58095E+18,544,1.58095E+18,,42.3425827,-71.08496094,-17.39999962,4689919.21,328254.1751,19T
1.58095E+18,545,1.58095E+18,,42.3425827,-71.08496094,-17.39999962,4689919.21,328254.1751,19T
1.58095E+18,546,1.58095E+18,,42.3425827,-71.08496094,-17.29999924,4689919.21,328254.1751,19T
1.58095E+18,547,1.58095E+18,,42.3425827,-71.08496094,-17.29999924,4689919.21,328254.1751,19T
1.58095E+18,548,1.58095E+18,,42.3425827,-71.08496094,-17.29999924,4689919.21,328254.1751,19T
1.58095E+18,549,1.58095E+18,,42.34257889,-71.08496094,-17.29999924,4689918.787,328254.1647,19T
1.58095E+18,550,1.58095E+18,,42.34257889,-71.08496094,-17.29999924,4689918.787,328254.1647,19T
1.58095E+18,551,1.58095E+18,,42.34257889,-71.08496094,-17.19999886,4689918.787,328254.1647,19T
1.58095E+18,552,1.58095E+18,,42.34257889,-71.08496094,-17.19999886,4689918.787,328254.1647,19T
1.58095E+18,553,1.58095E+18,,42.34257889,-71.08496094,-17.19999886,4689918.787,328254.1647,19T
1.58095E+18,554,1.58095E+18,,42.34257889,-71.08496094,-17.19999886,4689918.787,328254.1647,19T
1.58095E+18,555,1.58095E+18,,42.34257889,-71.08496094,-17.19999886,4689918.787,328254.1647,19T
1.58095E+18,556,1.58095E+18,,42.34257889,-71.08496094,-17.09999847,4689918.787,328254.1647,19T
1.58095E+18,557,1.58095E+18,,42.34257889,-71.08496094,-17.09999847,4689918.787,328254.1647,19T
1.58095E+18,558,1.58095E+18,,42.34257889,-71.08496094,-17.09999847,4689918.787,328254.1647,19T
1.58095E+18,559,1.58095E+18,,42.34257889,-71.08496094,-17.09999847,4689918.787,328254.1647,19T
1.58095E+18,560,1.58095E+18,,42.34257889,-71.08496094,-17.09999847,4689918.787,328254.1647,19T
1.58095E+18,561,1.58095E+18,,42.34257889,-71.08496094,-17.09999847,4689918.787,328254.1647,19T
1.58095E+18,562,1.58095E+18,,42.34257889,-71.08496094,-17,4689918.787,328254.1647,19T
1.58095E+18,563,1.58095E+18,,42.34257889,-71.08496094,-17,4689918.787,328254.1647,19T
1.58095E+18,564,1.58095E+18,,42.34257889,-71.08496094,-17,4689918.787,328254.1647,19T
1.58095E+18,565,1.58095E+18,,42.34257889,-71.08496094,-17,4689918.787,328254.1647,19T
1.58095E+18,566,1.58095E+18,,42.34257889,-71.08496094,-17,4689918.787,328254.1647,19T
1.58095E+18,567,1.58095E+18,,42.34257889,-71.08496094,-16.89999962,4689918.787,328254.1647,19T
1.58095E+18,568,1.58095E+18,,42.34257889,-71.08496094,-16.89999962,4689918.787,328254.1647,19T
1.58095E+18,569,1.58095E+18,,42.34257889,-71.08496094,-16.89999962,4689918.787,328254.1647,19T
1.58095E+18,570,1.58095E+18,,42.34257889,-71.08496094,-16.89999962,4689918.787,328254.1647,19T
1.58095E+18,571,1.58095E+18,,42.34257889,-71.08496094,-16.89999962,4689918.787,328254.1647,19T
1.58095E+18,572,1.58095E+18,,42.34257889,-71.08496094,-16.79999924,4689918.787,328254.1647,19T
1.58095E+18,573,1.58095E+18,,42.34257889,-71.08496094,-16.79999924,4689918.787,328254.1647,19T
1.58095E+18,574,1.58095E+18,,42.34257889,-71.08496094,-16.79999924,4689918.787,328254.1647,19T
1.58095E+18,575,1.58095E+18,,42.34257889,-71.08496094,-16.79999924,4689918.787,328254.1647,19T
1.58095E+18,576,1.58095E+18,,42.34257889,-71.08496094,-16.79999924,4689918.787,328254.1647,19T
1.58095E+18,577,1.58095E+18,,42.34257889,-71.08496094,-16.69999886,4689918.787,328254.1647,19T
1.58095E+18,578,1.58095E+18,,42.34257889,-71.08496094,-16.69999886,4689918.787,328254.1647,19T
1.58095E+18,579,1.58095E+18,,42.34257889,-71.08496094,-16.69999886,4689918.787,328254.1647,19T
1.58095E+18,580,1.58095E+18,,42.34257889,-71.08496094,-16.69999886,4689918.787,328254.1647,19T
1.58095E+18,581,1.58095E+18,,42.34257889,-71.08496094,-16.79999924,4689918.787,328254.1647,19T
1.58095E+18,582,1.58095E+18,,42.34258652,-71.08496094,-17.09999847,4689919.634,328254.1855,19T
1.58095E+18,583,1.58095E+18,,42.34259415,-71.08495331,-17.19999886,4689920.466,328254.8348,19T
1.58095E+18,584,1.58095E+18,,42.34260941,-71.08493805,-17.29999924,4689922.129,328256.1333,19T
1.58095E+18,585,1.58095E+18,,42.34262466,-71.08491516,-17.39999962,4689923.778,328258.0603,19T
1.58095E+18,586,1.58095E+18,,42.34263992,-71.08489227,-17.5,4689925.426,328259.9873,19T
1.58095E+18,587,1.58095E+18,,42.34264374,-71.08486176,-17.19999886,4689925.788,328262.5117,19T
1.58095E+18,588,1.58095E+18,,42.34263992,-71.08482361,-17,4689925.287,328265.6437,19T
1.58095E+18,589,1.58095E+18,,42.34262466,-71.08478546,-16.89999962,4689923.516,328268.7446,19T
1.58095E+18,590,1.58095E+18,,42.34260178,-71.08473969,-16.79999924,4689920.882,328272.4532,19T
1.58095E+18,591,1.58095E+18,,42.34257126,-71.08468628,-16.59999847,4689917.385,328276.7695,19T
1.58095E+18,592,1.58095E+18,,42.34253311,-71.08463287,-16.29999924,4689913.041,328281.0651,19T
1.58095E+18,593,1.58095E+18,,42.34249496,-71.08457947,-16,4689908.697,328285.3606,19T
1.58095E+18,594,1.58095E+18,,42.342453,-71.08451843,-15.79999924,4689903.915,328290.2743,19T
1.58095E+18,595,1.58095E+18,,42.34241104,-71.0844574,-15.59999847,4689899.132,328295.188,19T
1.58095E+18,596,1.58095E+18,,42.34236526,-71.08438873,-15.5,4689893.91,328300.7198,19T
1.58095E+18,597,1.58095E+18,,42.34231949,-71.0843277,-15.59999847,4689888.704,328305.6231,19T
1.58095E+18,598,1.58095E+18,,42.34227753,-71.08426666,-15.5,4689883.921,328310.5368,19T
1.58095E+18,599,1.58095E+18,,42.34224319,-71.084198,-14.79999924,4689879.97,328316.0997,19T
1.58095E+18,600,1.58095E+18,,42.34220505,-71.08414459,-14.19999886,4689875.626,328320.3953,19T
1.58095E+18,601,1.58095E+18,,42.34217072,-71.08409119,-13.69999886,4689871.706,328324.7013,19T
1.58095E+18,602,1.58095E+18,,42.34213638,-71.08403778,-13.19999886,4689867.786,328329.0073,19T
1.58095E+18,603,1.58095E+18,,42.34210968,-71.08399963,-13,4689864.743,328332.0771,19T
1.58095E+18,604,1.58095E+18,,42.34209061,-71.08396912,-13,4689862.564,328334.5392,19T
1.58095E+18,605,1.58095E+18,,42.34208298,-71.08394623,-12.69999886,4689861.671,328336.4039,19T
1.58095E+18,606,1.58095E+18,,42.34207153,-71.0839386,-12.59999847,4689860.384,328337.0012,19T
1.58095E+18,607,1.58095E+18,,42.34206772,-71.0839386,-12.59999847,4689859.961,328336.9908,19T
1.58095E+18,608,1.58095E+18,,42.34206009,-71.08393097,-12.5,4689859.098,328337.5986,19T
1.58095E+18,609,1.58095E+18,,42.34206009,-71.08393097,-12.5,4689859.098,328337.5986,19T
1.58095E+18,610,1.58095E+18,,42.34205246,-71.08393097,-12.5,4689858.251,328337.5778,19T
1.58095E+18,611,1.58095E+18,,42.34204483,-71.08393097,-12.59999847,4689857.404,328337.557,19T
1.58095E+18,612,1.58095E+18,,42.34204102,-71.08393097,-12.5,4689856.98,328337.5467,19T
1.58095E+18,613,1.58095E+18,,42.34204483,-71.08392334,-12.09999847,4689857.388,328338.1855,19T
1.58095E+18,614,1.58095E+18,,42.34204102,-71.08392334,-12.09999847,4689856.965,328338.1752,19T
1.58095E+18,615,1.58095E+18,,42.34203339,-71.08391571,-12.19999886,4689856.102,328338.7829,19T
1.58095E+18,616,1.58095E+18,,42.34202194,-71.08390045,-12.29999924,4689854.801,328340.0087,19T
1.58095E+18,617,1.58095E+18,,42.34200287,-71.08388519,-12.19999886,4689852.652,328341.2138,19T
1.58095E+18,618,1.58095E+18,,42.34197235,-71.0838623,-12.29999924,4689849.217,328343.0162,19T
1.58095E+18,619,1.58095E+18,,42.34194183,-71.08381653,-12.5,4689845.736,328346.7041,19T
1.58095E+18,620,1.58095E+18,,42.3419075,-71.08376312,-12.59999847,4689841.816,328351.0102,19T
1.58095E+18,621,1.58095E+18,,42.34186935,-71.08370209,-12.79999924,4689837.456,328355.9343,19T
1.58095E+18,622,1.58095E+18,,42.34182739,-71.08363342,-13,4689832.658,328361.4766,19T
1.58095E+18,623,1.58095E+18,,42.34179306,-71.08358002,-13.09999847,4689828.738,328365.7826,19T
1.58095E+18,624,1.58095E+18,,42.34176636,-71.08352661,-13.19999886,4689825.665,328370.1094,19T
1.58095E+18,625,1.58095E+18,,42.34174347,-71.08349609,-13.39999962,4689823.062,328372.5611,19T
1.58095E+18,626,1.58095E+18,,42.34172821,-71.08347321,-13.5,4689821.321,328374.4051,19T
1.58095E+18,627,1.58095E+18,,42.3417244,-71.08345795,-13.59999847,4689820.867,328375.6517,19T
1.58095E+18,628,1.58095E+18,,42.34172058,-71.08345032,-13.69999886,4689820.428,328376.2698,19T
1.58095E+18,629,1.58095E+18,,42.34172058,-71.08344269,-13.69999886,4689820.413,328376.8983,19T
1.58095E+18,630,1.58095E+18,,42.34172058,-71.08344269,-13.69999886,4689820.413,328376.8983,19T
1.58095E+18,631,1.58095E+18,,42.34172058,-71.08344269,-13.69999886,4689820.413,328376.8983,19T
1.58095E+18,632,1.58095E+18,,42.34172058,-71.08344269,-13.59999847,4689820.413,328376.8983,19T
1.58095E+18,633,1.58095E+18,,42.34172058,-71.08344269,-13.59999847,4689820.413,328376.8983,19T
1.58095E+18,634,1.58095E+18,,42.34172058,-71.08344269,-13.59999847,4689820.413,328376.8983,19T
1.58095E+18,635,1.58095E+18,,42.34172058,-71.08344269,-13.5,4689820.413,328376.8983,19T
1.58095E+18,636,1.58095E+18,,42.34172058,-71.08344269,-13.5,4689820.413,328376.8983,19T
1.58095E+18,637,1.58095E+18,,42.34172058,-71.08344269,-13.5,4689820.413,328376.8983,19T
1.58095E+18,638,1.58095E+18,,42.3417244,-71.08344269,-13.39999962,4689820.836,328376.9087,19T
1.58095E+18,639,1.58095E+18,,42.3417244,-71.08344269,-13.39999962,4689820.836,328376.9087,19T
1.58095E+18,640,1.58095E+18,,42.3417244,-71.08344269,-13.39999962,4689820.836,328376.9087,19T
1.58095E+18,641,1.58095E+18,,42.3417244,-71.08344269,-13.39999962,4689820.836,328376.9087,19T
1.58095E+18,642,1.58095E+18,,42.3417244,-71.08344269,-13.39999962,4689820.836,328376.9087,19T
1.58095E+18,643,1.58095E+18,,42.3417244,-71.08344269,-13.39999962,4689820.836,328376.9087,19T
1.58095E+18,644,1.58095E+18,,42.3417244,-71.08344269,-13.39999962,4689820.836,328376.9087,19T
1.58095E+18,645,1.58095E+18,,42.3417244,-71.08344269,-13.39999962,4689820.836,328376.9087,19T
1.58095E+18,646,1.58095E+18,,42.3417244,-71.08344269,-13.39999962,4689820.836,328376.9087,19T
1.58095E+18,647,1.58095E+18,,42.3417244,-71.08344269,-13.39999962,4689820.836,328376.9087,19T
1.58095E+18,648,1.58095E+18,,42.3417244,-71.08344269,-13.39999962,4689820.836,328376.9087,19T
1.58095E+18,649,1.58095E+18,,42.3417244,-71.08344269,-13.39999962,4689820.836,328376.9087,19T
1.58095E+18,650,1.58095E+18,,42.3417244,-71.08344269,-13.29999924,4689820.836,328376.9087,19T
1.58095E+18,651,1.58095E+18,,42.3417244,-71.08344269,-13.29999924,4689820.836,328376.9087,19T
1.58095E+18,652,1.58095E+18,,42.3417244,-71.08344269,-13.29999924,4689820.836,328376.9087,19T
1.58095E+18,653,1.58095E+18,,42.3417244,-71.08344269,-14,4689820.836,328376.9087,19T
1.58096E+18,654,1.58096E+18,,42.34172058,-71.08344269,-14.59999847,4689820.413,328376.8983,19T
1.58096E+18,655,1.58096E+18,,42.34172058,-71.08343506,-15.09999847,4689820.397,328377.5268,19T
1.58096E+18,656,1.58096E+18,,42.34171677,-71.08343506,-15.59999847,4689819.974,328377.5164,19T
1.58096E+18,657,1.58096E+18,,42.34171295,-71.08343506,-16,4689819.55,328377.5061,19T
1.58096E+18,658,1.58096E+18,,42.34171295,-71.08342743,-16.39999962,4689819.535,328378.1345,19T
1.58096E+18,659,1.58096E+18,,42.34170914,-71.08342743,-16.69999886,4689819.111,328378.1242,19T
1.58096E+18,660,1.58096E+18,,42.34170914,-71.0834198,-17.09999847,4689819.096,328378.7527,19T
1.58096E+18,661,1.58096E+18,,42.34170532,-71.0834198,-17.39999962,4689818.672,328378.7423,19T
1.58096E+18,662,1.58096E+18,,42.34169769,-71.08340454,-17.69999886,4689817.794,328379.9785,19T
1.58096E+18,663,1.58096E+18,,42.34168625,-71.08338928,-17.89999962,4689816.492,328381.2044,19T
1.58096E+18,664,1.58096E+18,,42.34167099,-71.08336639,-17.89999962,4689814.752,328383.0483,19T
1.58096E+18,665,1.58096E+18,,42.34165192,-71.08333588,-18,4689812.572,328385.5104,19T
1.58096E+18,666,1.58096E+18,,42.34162521,-71.08330536,-18.09999847,4689809.546,328387.9518,19T
1.58096E+18,667,1.58096E+18,,42.3415947,-71.08325958,-18.19999886,4689806.064,328391.6397,19T
1.58096E+18,668,1.58096E+18,,42.34156036,-71.08320618,-18.09999847,4689802.144,328395.9458,19T
1.58096E+18,669,1.58096E+18,,42.34152985,-71.0831604,-17.69999886,4689798.663,328399.6338,19T
1.58096E+18,670,1.58096E+18,,42.34149551,-71.08310699,-17.59999847,4689794.743,328403.9398,19T
1.58096E+18,671,1.58096E+18,,42.341465,-71.08306122,-17.69999886,4689791.262,328407.6278,19T
1.58096E+18,672,1.58096E+18,,42.34143066,-71.08300781,-17.89999962,4689787.342,328411.9339,19T
1.58096E+18,673,1.58096E+18,,42.34139633,-71.08295441,-18.19999886,4689783.422,328416.24,19T
1.58096E+18,674,1.58096E+18,,42.34135818,-71.08290863,-18.5,4689779.093,328419.9072,19T
1.58096E+18,675,1.58096E+18,,42.34132004,-71.08285522,-18.79999924,4689774.75,328424.203,19T
1.58096E+18,676,1.58096E+18,,42.34128189,-71.08279419,-19,4689770.391,328429.1272,19T
1.58096E+18,677,1.58096E+18,,42.34124374,-71.08273315,-19.29999924,4689766.032,328434.0514,19T
1.58096E+18,678,1.58096E+18,,42.3412056,-71.08267975,-19.59999847,4689761.688,328438.3472,19T
1.58096E+18,679,1.58096E+18,,42.34116364,-71.08262634,-19.79999924,4689756.921,328442.6326,19T
1.58096E+18,680,1.58096E+18,,42.34112167,-71.08256531,-20.09999847,4689752.138,328447.5465,19T
1.58096E+18,681,1.58096E+18,,42.34107971,-71.0825119,-20.39999962,4689747.371,328451.8318,19T
1.58096E+18,682,1.58096E+18,,42.34104156,-71.08245087,-20.69999886,4689743.012,328456.7561,19T
1.58096E+18,683,1.58096E+18,,42.3409996,-71.08238983,-20.79999924,4689738.229,328461.67,19T
1.58096E+18,684,1.58096E+18,,42.34095764,-71.08233643,-21.09999847,4689733.462,328465.9554,19T
1.58096E+18,685,1.58096E+18,,42.34091568,-71.08227539,-21.39999962,4689728.679,328470.8694,19T
1.58096E+18,686,1.58096E+18,,42.34087753,-71.08222198,-21.59999847,4689724.335,328475.1651,19T
1.58096E+18,687,1.58096E+18,,42.3408432,-71.08217621,-21.89999962,4689720.431,328478.8428,19T
1.58096E+18,688,1.58096E+18,,42.34080887,-71.08213043,-22.09999847,4689716.526,328482.5205,19T
1.58096E+18,689,1.58096E+18,,42.34078598,-71.08209229,-22,4689713.907,328485.6008,19T
1.58096E+18,690,1.58096E+18,,42.34076309,-71.08206177,-22.19999886,4689711.304,328488.0526,19T
1.58096E+18,691,1.58096E+18,,42.34074402,-71.08203125,-22.29999924,4689709.125,328490.5147,19T
1.58096E+18,692,1.58096E+18,,42.34072876,-71.08201599,-22.39999962,4689707.4,328491.7302,19T
1.58096E+18,693,1.58096E+18,,42.34072113,-71.08200073,-22.39999962,4689706.522,328492.9665,19T
1.58096E+18,694,1.58096E+18,,42.3407135,-71.0819931,-22.39999962,4689705.659,328493.5743,19T
1.58096E+18,695,1.58096E+18,,42.3407135,-71.08198547,-22.5,4689705.644,328494.2028,19T
1.58096E+18,696,1.58096E+18,,42.34070969,-71.08197784,-22.39999962,4689705.205,328494.8209,19T
1.58096E+18,697,1.58096E+18,,42.34070206,-71.08197021,-22.29999924,4689704.342,328495.4287,19T
1.58096E+18,698,1.58096E+18,,42.34069443,-71.08196259,-22.09999847,4689703.48,328496.0364,19T
1.58096E+18,699,1.58096E+18,,42.34067917,-71.0819397,-21.89999962,4689701.739,328497.8805,19T
1.58096E+18,700,1.58096E+18,,42.3406601,-71.08191681,-21.89999962,4689699.575,328499.7141,19T
1.58096E+18,701,1.58096E+18,,42.34064484,-71.08188629,-21.29999924,4689697.819,328502.1867,19T
1.58096E+18,702,1.58096E+18,,42.34061432,-71.08184052,-21.29999924,4689694.338,328505.8747,19T
1.58096E+18,703,1.58096E+18,,42.34057236,-71.08179474,-21.39999962,4689689.586,328509.5317,19T
1.58096E+18,704,1.58096E+18,,42.34053421,-71.08174133,-21.39999962,4689685.242,328513.8275,19T
1.58096E+18,705,1.58096E+18,,42.34049225,-71.08168793,-21.39999962,4689680.475,328518.113,19T
1.58096E+18,706,1.58096E+18,,42.34044647,-71.08162689,-21.29999924,4689675.269,328523.0166,19T
1.58096E+18,707,1.58096E+18,,42.34039688,-71.08155823,-20.5,4689669.624,328528.5384,19T
1.58096E+18,708,1.58096E+18,,42.34033585,-71.08148956,-20.5,4689662.708,328534.0291,19T
1.58096E+18,709,1.58096E+18,,42.34027481,-71.0814209,-20.59999847,4689655.792,328539.5198,19T
1.58096E+18,710,1.58096E+18,,42.34020996,-71.08135986,-20.69999886,4689648.468,328544.3716,19T
1.58096E+18,711,1.58096E+18,,42.3401413,-71.0812912,-20.89999962,4689640.704,328549.8415,19T
1.58096E+18,712,1.58096E+18,,42.34007645,-71.08123016,-21.09999847,4689633.38,328554.6934,19T
1.58096E+18,713,1.58096E+18,,42.3400116,-71.08116913,-21.29999924,4689626.056,328559.5452,19T
1.58096E+18,714,1.58096E+18,,42.33994675,-71.08111572,-21.39999962,4689618.747,328563.7686,19T
1.58096E+18,715,1.58096E+18,,42.33988571,-71.08105469,-21.59999847,4689611.847,328568.6308,19T
1.58096E+18,716,1.58096E+18,,42.33982849,-71.08099365,-21.69999886,4689605.37,328573.5034,19T
1.58096E+18,717,1.58096E+18,,42.33977127,-71.08094025,-21.89999962,4689598.908,328577.7475,19T
1.58096E+18,718,1.58096E+18,,42.33971787,-71.08089447,-22,4689592.886,328581.3735,19T
1.58096E+18,719,1.58096E+18,,42.33967209,-71.08084869,-22.09999847,4689587.71,328585.0202,19T
1.58096E+18,720,1.58096E+18,,42.33963013,-71.08081055,-22.29999924,4689582.974,328588.0487,19T
1.58096E+18,721,1.58096E+18,,42.33959198,-71.0807724,-22.19999886,4689578.661,328591.0877,19T
1.58096E+18,722,1.58096E+18,,42.33956146,-71.08074188,-22.29999924,4689575.211,328593.5188,19T
1.58096E+18,723,1.58096E+18,,42.33953476,-71.08071899,-22.29999924,4689572.2,328595.3318,19T
1.58096E+18,724,1.58096E+18,,42.33951569,-71.08069611,-22.39999962,4689570.035,328597.1655,19T
1.58096E+18,725,1.58096E+18,,42.33950043,-71.08068085,-22.5,4689568.31,328598.3811,19T
1.58096E+18,726,1.58096E+18,,42.33948898,-71.08066559,-22.69999886,4689567.009,328599.607,19T
1.58096E+18,727,1.58096E+18,,42.33948135,-71.08065796,-22.59999847,4689566.146,328600.2148,19T
1.58096E+18,728,1.58096E+18,,42.33948135,-71.08065796,-22.5,4689566.146,328600.2148,19T
1.58096E+18,729,1.58096E+18,,42.33948517,-71.08065796,-22.5,4689566.57,328600.2252,19T
1.58096E+18,730,1.58096E+18,,42.33948517,-71.08065796,-22.39999962,4689566.57,328600.2252,19T
1.58096E+18,731,1.58096E+18,,42.33948517,-71.08065796,-22.39999962,4689566.57,328600.2252,19T
1.58096E+18,732,1.58096E+18,,42.33948517,-71.08065796,-22.29999924,4689566.57,328600.2252,19T
1.58096E+18,733,1.58096E+18,,42.33948517,-71.08065796,-22.29999924,4689566.57,328600.2252,19T
1.58096E+18,734,1.58096E+18,,42.33948517,-71.08065796,-22.19999886,4689566.57,328600.2252,19T
1.58096E+18,735,1.58096E+18,,42.33948517,-71.08065796,-22.09999847,4689566.57,328600.2252,19T
1.58096E+18,736,1.58096E+18,,42.33948517,-71.08065796,-22.09999847,4689566.57,328600.2252,19T
1.58096E+18,737,1.58096E+18,,42.33948517,-71.08065796,-22,4689566.57,328600.2252,19T
1.58096E+18,738,1.58096E+18,,42.33948517,-71.08065796,-22,4689566.57,328600.2252,19T
1.58096E+18,739,1.58096E+18,,42.33948517,-71.08065796,-21.89999962,4689566.57,328600.2252,19T
1.58096E+18,740,1.58096E+18,,42.33948898,-71.08065796,-21.79999924,4689566.993,328600.2356,19T
1.58096E+18,741,1.58096E+18,,42.33948898,-71.08065796,-21.79999924,4689566.993,328600.2356,19T
