%time,4220.583,7106.00615,field.altitude,field.utm_easting,field.utm_northing,field.zone,field.letter,,,
1.58E+18,4220.583,7106.00615,21.2,603048.6573,6940731.309,43,V,,,4220.580017
1.58E+18,4220.58298,7106.00618,21.3,603049.0036,6940720.172,43,V,,,7106.00762
1.58E+18,4220.58293,7106.00622,21.4,603054.1391,6940720.331,43,V,,,
1.58E+18,4220.58293,7106.00627,21.6,603054.1391,6940720.331,43,V,,,
1.58E+18,4220.58289,7106.00631,21.6,603059.621,6940709.354,43,V,,,
1.58E+18,4220.58286,7106.00635,21.7,603059.621,6940709.354,43,V,,,
1.58E+18,4220.58285,7106.00636,21.8,603059.621,6940709.354,43,V,,,
1.58E+18,4220.58281,7106.00637,21.8,603059.621,6940709.354,43,V,,,
1.58E+18,4220.58281,7106.00637,21.5,603059.621,6940709.354,43,V,,,
1.58E+18,4220.58279,7106.00637,21.2,603059.9674,6940698.217,43,V,,,
1.58E+18,4220.58268,7106.00637,20.8,603060.3137,6940687.08,43,V,,,
1.58E+18,4220.58266,7106.00638,20.4,603060.3137,6940687.08,43,V,,,
1.58E+18,4220.58266,7106.00642,20.2,603065.4493,6940687.239,43,V,,,
1.58E+18,4220.5826,7106.00644,20,603065.4493,6940687.239,43,V,,,
1.58E+18,4220.58255,7106.00646,19.9,603065.7956,6940676.102,43,V,,,
1.58E+18,4220.58254,7106.00647,19.8,603065.7956,6940676.102,43,V,,,
1.58E+18,4220.58255,7106.0065,19.7,603070.9313,6940676.262,43,V,,,
1.58E+18,4220.58246,7106.00651,19.5,603071.2776,6940665.125,43,V,,,
1.58E+18,4220.58236,7106.00652,19.3,603071.624,6940653.988,43,V,,,
1.58E+18,4220.5823,7106.00657,19.2,603071.624,6940653.988,43,V,,,
1.58E+18,4220.58221,7106.00657,19,603077.106,6940643.01,43,V,,,
1.58E+18,4220.58214,7106.00665,18.9,603077.4524,6940631.873,43,V,,,
1.58E+18,4220.58207,7106.00669,18.8,603077.7988,6940620.736,43,V,,,
1.58E+18,4220.58207,7106.00675,18.9,603082.9345,6940620.896,43,V,,,
1.58E+18,4220.58207,7106.00681,18.9,603088.0702,6940621.056,43,V,,,
1.58E+18,4220.58208,7106.00688,19,603088.0702,6940621.056,43,V,,,
1.58E+18,4220.5821,7106.00699,19.1,603092.8595,6940632.353,43,V,,,
1.58E+18,4220.58214,7106.00713,19.3,603103.131,6940632.672,43,V,,,
1.58E+18,4220.58219,7106.00725,19.6,603108.2667,6940632.832,43,V,,,
1.58E+18,4220.58219,7106.00736,19.6,603113.4024,6940632.992,43,V,,,
1.58E+18,4220.58219,7106.00741,19.7,603118.5381,6940633.151,43,V,,,
1.58E+18,4220.58221,7106.00743,19.9,603118.1916,6940644.289,43,V,,,
1.58E+18,4220.58219,7106.00741,19.9,603118.5381,6940633.151,43,V,,,
1.58E+18,4220.58225,7106.00741,20.2,603118.1916,6940644.289,43,V,,,
1.58E+18,4220.58229,7106.00742,20.5,603118.1916,6940644.289,43,V,,,
1.58E+18,4220.58221,7106.00735,20.8,603113.0559,6940644.129,43,V,,,
1.58E+18,4220.58214,7106.0073,21.1,603113.4024,6940632.992,43,V,,,
1.58E+18,4220.58198,7106.00709,21.9,603098.6881,6940610.238,43,V,,,
1.58E+18,4220.58186,7106.00696,22.4,603093.8988,6940598.941,43,V,,,
1.58E+18,4220.58182,7106.00694,22.5,603093.8988,6940598.941,43,V,,,
1.58E+18,4220.58178,7106.00693,22.8,603094.2452,6940587.804,43,V,,,
1.58E+18,4220.58172,7106.00693,23.1,603094.2452,6940587.804,43,V,,,
1.58E+18,4220.58169,7106.00692,23.3,603094.5916,6940576.667,43,V,,,
1.58E+18,4220.58157,7106.00683,23.7,603089.8023,6940565.37,43,V,,,
1.58E+18,4220.58144,7106.00676,24,603085.0128,6940554.073,43,V,,,
1.58E+18,4220.58135,7106.00669,24.5,603080.2234,6940542.777,43,V,,,
1.58E+18,4220.58126,7106.00665,25,603080.5697,6940531.639,43,V,,,
1.58E+18,4220.58139,7106.00692,26.2,603095.6309,6940543.256,43,V,,,
1.58E+18,4220.58135,7106.00689,26.8,603090.4951,6940543.096,43,V,,,
1.58E+18,4220.58132,7106.00687,27.4,603090.4951,6940543.096,43,V,,,
1.58E+18,4220.58114,7106.00659,28.9,603075.7802,6940520.343,43,V,,,
1.58E+18,4220.58119,7106.0067,29.4,603086.052,6940520.662,43,V,,,
1.58E+18,4220.58106,7106.00648,30.7,603070.9907,6940509.046,43,V,,,
1.58E+18,4220.58095,7106.00629,32,603061.0652,6940497.589,43,V,,,
1.58E+18,4220.58086,7106.00616,33,603056.2755,6940486.292,43,V,,,
1.58E+18,4220.58088,7106.00614,33.4,603056.2755,6940486.292,43,V,,,
1.58E+18,4220.58071,7106.00595,33.8,603046.3499,6940474.836,43,V,,,
1.58E+18,4220.58052,7106.00585,34.2,603041.9064,6940452.402,43,V,,,
1.58E+18,4220.58036,7106.00574,34.3,603037.4628,6940429.968,43,V,,,
1.58E+18,4220.5803,7106.00581,34.4,603042.5988,6940430.128,43,V,,,
1.58E+18,4220.58027,7106.00583,34.3,603042.9451,6940418.991,43,V,,,
1.58E+18,4220.58023,7106.00571,33.8,603037.809,6940418.831,43,V,,,
1.58E+18,4220.58029,7106.00517,32.1,603006.9928,6940417.873,43,V,,,
1.58E+18,4220.58025,7106.00451,30.5,602976.1765,6940416.916,43,V,,,
1.58E+18,4220.58016,7106.00457,30.8,602976.5225,6940405.779,43,V,,,
1.58E+18,4220.58002,7106.00457,31.2,602976.8685,6940394.642,43,V,,,
1.58E+18,4220.57988,7106.00452,31.5,602977.5605,6940372.367,43,V,,,
1.58E+18,4220.57976,7106.00431,31.4,602967.6343,6940360.911,43,V,,,
1.58E+18,4220.57984,7106.00422,30.8,602962.1522,6940371.889,43,V,,,
1.58E+18,4220.58002,7106.0042,30.4,602961.4603,6940394.163,43,V,,,
1.58E+18,4220.58016,7106.00423,30,602961.1143,6940405.3,43,V,,,
1.58E+18,4220.58015,7106.00363,29.2,602930.298,6940404.343,43,V,,,
1.58E+18,4220.58012,7106.00368,29.3,602930.298,6940404.343,43,V,,,
1.58E+18,4220.58014,7106.00378,29.6,602935.434,6940404.502,43,V,,,
1.58E+18,4220.58021,7106.00375,29.6,602935.0882,6940415.64,43,V,,,
1.58E+18,4220.58041,7106.0036,28.9,602929.2604,6940437.754,43,V,,,
1.58E+18,4220.58069,7106.00337,28.2,602913.1608,6940459.55,43,V,,,
1.58E+18,4220.58081,7106.00318,27.3,602902.1973,6940481.505,43,V,,,
1.58E+18,4220.58091,7106.00306,26.7,602896.7156,6940492.483,43,V,,,
1.58E+18,4220.58091,7106.00303,26.3,602896.7156,6940492.483,43,V,,,
1.58E+18,4220.58091,7106.00299,25.9,602891.5797,6940492.324,43,V,,,
1.58E+18,4220.58084,7106.00301,25.9,602897.0614,6940481.346,43,V,,,
1.58E+18,4220.58077,7106.00316,25.5,602902.5431,6940470.368,43,V,,,
1.58E+18,4220.58069,7106.00331,25.3,602913.1608,6940459.55,43,V,,,
1.58E+18,4220.58058,7106.00345,25.1,602918.6426,6940448.572,43,V,,,
1.58E+18,4220.58042,7106.00355,25,602924.1244,6940437.595,43,V,,,
1.58E+18,4220.58017,7106.00365,25,602930.298,6940404.343,43,V,,,
1.58E+18,4220.57965,7106.0038,25.6,602942.2995,6940348.976,43,V,,,
1.58E+18,4220.57926,7106.00391,26,602948.8192,6940304.587,43,V,,,
1.58E+18,4220.57897,7106.00402,26.4,602954.9932,6940271.336,43,V,,,
1.58E+18,4220.57873,7106.00408,26.5,602955.685,6940249.061,43,V,,,
1.58E+18,4220.57854,7106.00418,26.7,602961.5132,6940226.947,43,V,,,
1.58E+18,4220.57833,7106.00427,26.8,602967.3414,6940204.832,43,V,,,
1.58E+18,4220.57811,7106.00432,26.8,602973.1697,6940182.717,43,V,,,
1.58E+18,4220.57793,7106.00436,26.8,602973.8616,6940160.443,43,V,,,
1.58E+18,4220.57778,7106.00444,26.7,602979.69,6940138.328,43,V,,,
1.58E+18,4220.57766,7106.00453,26.6,602985.1725,6940127.351,43,V,,,
1.58E+18,4220.57751,7106.00461,26.5,602990.655,6940116.373,43,V,,,
1.58E+18,4220.57739,7106.00468,26.3,602991.347,6940094.099,43,V,,,
1.58E+18,4220.57726,7106.00476,26.2,602996.8296,6940083.122,43,V,,,
1.58E+18,4220.57721,7106.00498,26,603007.1027,6940083.441,43,V,,,
1.58E+18,4220.57721,7106.00518,25.7,603017.3758,6940083.76,43,V,,,
1.58E+18,4220.57714,7106.00523,25.5,603022.8585,6940072.783,43,V,,,
1.58E+18,4220.57717,7106.00528,25.2,603022.8585,6940072.783,43,V,,,
1.58E+18,4220.57717,7106.00534,24.9,603027.995,6940072.942,43,V,,,
1.58E+18,4220.57721,7106.00545,24.8,603032.7855,6940084.239,43,V,,,
1.58E+18,4220.57719,7106.00547,24.7,603033.1316,6940073.102,43,V,,,
1.58E+18,4220.5771,7106.0054,24.8,603033.1316,6940073.102,43,V,,,
1.58E+18,4220.577,7106.00534,25,603028.3412,6940061.805,43,V,,,
1.58E+18,4220.57695,7106.00531,24.9,603028.6873,6940050.668,43,V,,,
1.58E+18,4220.57704,7106.00546,24.6,603033.4778,6940061.965,43,V,,,
1.58E+18,4220.57707,7106.00555,24.4,603038.6144,6940062.124,43,V,,,
1.58E+18,4220.57708,7106.00564,24.2,603043.751,6940062.284,43,V,,,
1.58E+18,4220.57706,7106.00573,24.1,603048.8875,6940062.444,43,V,,,
1.58E+18,4220.57708,7106.00581,24,603054.0241,6940062.603,43,V,,,
1.58E+18,4220.57713,7106.00589,23.8,603053.6779,6940073.741,43,V,,,
1.58E+18,4220.57726,7106.006,23.6,603063.6048,6940085.197,43,V,,,
1.58E+18,4220.57746,7106.0062,23.7,603073.1854,6940107.791,43,V,,,
1.58E+18,4220.57767,7106.00638,23.7,603077.6293,6940130.225,43,V,,,
1.58E+18,4220.57787,7106.00655,23.7,603087.2096,6940152.818,43,V,,,
1.58E+18,4220.57805,7106.00671,23.7,603096.7897,6940175.412,43,V,,,
1.58E+18,4220.57821,7106.00688,23.8,603101.2334,6940197.846,43,V,,,
1.58E+18,4220.57835,7106.00703,24,603111.1597,6940209.302,43,V,,,
1.58E+18,4220.57846,7106.00715,24.2,603115.9496,6940220.599,43,V,,,
1.58E+18,4220.5785,7106.00723,24.4,603120.7395,6940231.896,43,V,,,
1.58E+18,4220.57853,7106.00729,24.5,603120.7395,6940231.896,43,V,,,
1.58E+18,4220.57856,7106.00732,24.6,603125.8759,6940232.056,43,V,,,
1.58E+18,4220.57855,7106.00733,24.7,603125.8759,6940232.056,43,V,,,
1.58E+18,4220.57855,7106.00733,24.8,603125.8759,6940232.056,43,V,,,
1.58E+18,4220.57854,7106.00736,24.9,603125.8759,6940232.056,43,V,,,
1.58E+18,4220.57851,7106.0074,25.1,603131.0122,6940232.216,43,V,,,
1.58E+18,4220.57854,7106.00744,25.5,603131.0122,6940232.216,43,V,,,
1.58E+18,4220.57857,7106.00749,25.8,603131.0122,6940232.216,43,V,,,
1.58E+18,4220.57856,7106.00755,26.1,603136.1485,6940232.376,43,V,,,
1.58E+18,4220.57854,7106.00759,26.3,603136.1485,6940232.376,43,V,,,
1.58E+18,4220.5785,7106.00761,26.6,603141.2848,6940232.535,43,V,,,
1.58E+18,4220.5785,7106.00761,26.6,603141.2848,6940232.535,43,V,,,
1.58E+18,4220.57854,7106.00763,26.7,603141.2848,6940232.535,43,V,,,
1.58E+18,4220.57863,7106.00766,26.8,603140.9383,6940243.673,43,V,,,
1.58E+18,4220.5787,7106.0077,26.9,603145.7281,6940254.969,43,V,,,
1.58E+18,4220.57877,7106.00772,27,603145.7281,6940254.969,43,V,,,
1.58E+18,4220.57887,7106.00773,27.1,603145.3815,6940266.107,43,V,,,
1.58E+18,4220.57899,7106.00777,27.1,603145.035,6940277.244,43,V,,,
1.58E+18,4220.57907,7106.00777,27.1,603144.6884,6940288.381,43,V,,,
1.58E+18,4220.57915,7106.00775,27,603144.3419,6940299.518,43,V,,,
1.58E+18,4220.5792,7106.00771,26.8,603143.9953,6940310.655,43,V,,,
1.58E+18,4220.57926,7106.00766,26.6,603138.8591,6940310.495,43,V,,,
1.58E+18,4220.57932,7106.00763,26.3,603138.5126,6940321.632,43,V,,,
1.58E+18,4220.57935,7106.00758,26,603133.3764,6940321.472,43,V,,,
1.58E+18,4220.5794,7106.00751,25.6,603133.0299,6940332.61,43,V,,,
1.58E+18,4220.57941,7106.00758,25.5,603133.0299,6940332.61,43,V,,,
1.58E+18,4220.57944,7106.00767,25.5,603138.1661,6940332.769,43,V,,,
1.58E+18,4220.57943,7106.00768,25.4,603138.1661,6940332.769,43,V,,,
1.58E+18,4220.57955,7106.00762,24.9,603137.8195,6940343.906,43,V,,,
1.58E+18,4220.57963,7106.00753,24.4,603132.3368,6940354.884,43,V,,,
1.58E+18,4220.57966,7106.00743,24,603127.2007,6940354.724,43,V,,,
1.58E+18,4220.57967,7106.00734,23.7,603122.0646,6940354.564,43,V,,,
1.58E+18,4220.57972,7106.0072,23.2,603116.582,6940365.541,43,V,,,
1.58E+18,4220.57966,7106.00722,23.2,603116.9284,6940354.404,43,V,,,
1.58E+18,4220.57966,7106.00726,23.3,603116.9284,6940354.404,43,V,,,
1.58E+18,4220.57966,7106.00729,23.2,603116.9284,6940354.404,43,V,,,
1.58E+18,4220.57969,7106.00737,23.3,603122.0646,6940354.564,43,V,,,
1.58E+18,4220.57969,7106.00745,23.4,603127.2007,6940354.724,43,V,,,
1.58E+18,4220.57973,7106.00749,23.3,603126.8542,6940365.861,43,V,,,
1.58E+18,4220.57997,7106.00705,21.7,603105.6168,6940387.496,43,V,,,
1.58E+18,4220.58012,7106.00672,20.4,603089.5158,6940409.291,43,V,,,
1.58E+18,4220.5802,7106.00649,19.4,603073.7613,6940419.949,43,V,,,
1.58E+18,4220.58028,7106.00625,18.4,603063.4892,6940419.63,43,V,,,
1.58E+18,4220.58041,7106.00604,17.5,603052.5246,6940441.584,43,V,,,
1.58E+18,4220.58053,7106.00587,16.8,603041.9064,6940452.402,43,V,,,
1.58E+18,4220.58056,7106.00571,16,603036.7704,6940452.242,43,V,,,
1.58E+18,4220.58063,7106.00559,15.4,603026.1522,6940463.06,43,V,,,
1.58E+18,4220.58067,7106.00551,14.8,603026.1522,6940463.06,43,V,,,
1.58E+18,4220.58068,7106.0055,14.5,603026.1522,6940463.06,43,V,,,
1.58E+18,4220.58072,7106.00551,14.3,603025.8061,6940474.197,43,V,,,
1.58E+18,4220.58075,7106.00552,14.2,603025.8061,6940474.197,43,V,,,
1.58E+18,4220.58078,7106.00554,14.2,603025.8061,6940474.197,43,V,,,
1.58E+18,4220.58082,7106.00556,14.1,603025.4599,6940485.334,43,V,,,
1.58E+18,4220.58089,7106.00557,14.1,603025.4599,6940485.334,43,V,,,
1.58E+18,4220.58091,7106.00554,13.9,603025.1137,6940496.472,43,V,,,
1.58E+18,4220.58096,7106.0055,13.8,603025.1137,6940496.472,43,V,,,
1.58E+18,4220.58088,7106.00549,13.6,603020.324,6940485.175,43,V,,,
1.58E+18,4220.58077,7106.00543,13.4,603020.6701,6940474.038,43,V,,,
1.58E+18,4220.58068,7106.00538,13.1,603015.8803,6940462.741,43,V,,,
1.58E+18,4220.5806,7106.00533,12.9,603015.8803,6940462.741,43,V,,,
1.58E+18,4220.58052,7106.00527,12.8,603011.0904,6940451.444,43,V,,,
1.58E+18,4220.58048,7106.00521,12.6,603011.4366,6940440.307,43,V,,,
1.58E+18,4220.58039,7106.00513,12.5,603006.6467,6940429.01,43,V,,,
1.58E+18,4220.58029,7106.00506,12.2,603001.8567,6940417.714,43,V,,,
1.58E+18,4220.5802,7106.00501,12,603001.8567,6940417.714,43,V,,,
1.58E+18,4220.58013,7106.00495,11.8,602997.0668,6940406.417,43,V,,,
1.58E+18,4220.58005,7106.00487,11.7,602992.2768,6940395.12,43,V,,,
1.58E+18,4220.58002,7106.00479,11.7,602987.1407,6940394.961,43,V,,,
1.58E+18,4220.57992,7106.00471,11.6,602987.4867,6940383.824,43,V,,,
1.58E+18,4220.57981,7106.00461,11.6,602982.6966,6940372.527,43,V,,,
1.58E+18,4220.57972,7106.00452,11.6,602977.9065,6940361.23,43,V,,,
1.58E+18,4220.57966,7106.00446,11.6,602973.1164,6940349.934,43,V,,,
1.58E+18,4220.57958,7106.00439,11.6,602968.3262,6940338.637,43,V,,,
1.58E+18,4220.57952,7106.00434,11.5,602968.3262,6940338.637,43,V,,,
1.58E+18,4220.57947,7106.0043,11.5,602968.6722,6940327.5,43,V,,,
1.58E+18,4220.57944,7106.00428,11.6,602963.536,6940327.34,43,V,,,
1.58E+18,4220.57941,7106.00424,11.7,602963.536,6940327.34,43,V,,,
1.58E+18,4220.57934,7106.00419,11.8,602958.7457,6940316.044,43,V,,,
1.58E+18,4220.57929,7106.00414,11.9,602959.0917,6940304.906,43,V,,,
1.58E+18,4220.57932,7106.00414,12,602958.7457,6940316.044,43,V,,,
1.58E+18,4220.57936,7106.00412,12.2,602958.7457,6940316.044,43,V,,,
1.58E+18,4220.57949,7106.00408,12.7,602953.2636,6940327.021,43,V,,,
1.58E+18,4220.57967,7106.00401,13.5,602952.5718,6940349.295,43,V,,,
1.58E+18,4220.57983,7106.0039,14.2,602946.7439,6940371.41,43,V,,,
1.58E+18,4220.57995,7106.00378,15,602936.1258,6940382.228,43,V,,,
1.58E+18,4220.58009,7106.00366,15.7,602930.6438,6940393.206,43,V,,,
1.58E+18,4220.58021,7106.00352,16.5,602924.8161,6940415.321,43,V,,,
1.58E+18,4220.5803,7106.0034,17.1,602919.3342,6940426.298,43,V,,,
1.58E+18,4220.58032,7106.00329,17.6,602909.0622,6940425.979,43,V,,,
1.58E+18,4220.58037,7106.0032,18,602909.0622,6940425.979,43,V,,,
1.58E+18,4220.58041,7106.00314,18.4,602903.5804,6940436.957,43,V,,,
1.58E+18,4220.58044,7106.00307,18.9,602898.4444,6940436.797,43,V,,,
1.58E+18,4220.58051,7106.00301,19.4,602898.0986,6940447.935,43,V,,,
1.58E+18,4220.58058,7106.00293,19.9,602892.9626,6940447.775,43,V,,,
1.58E+18,4220.58063,7106.00288,20.3,602887.4809,6940458.753,43,V,,,
1.58E+18,4220.58063,7106.00281,20.6,602887.4809,6940458.753,43,V,,,
1.58E+18,4220.58071,7106.00277,21,602881.9993,6940469.731,43,V,,,
1.58E+18,4220.58079,7106.00269,21.4,602876.8633,6940469.571,43,V,,,
1.58E+18,4220.58087,7106.00263,21.7,602876.5176,6940480.708,43,V,,,
1.58E+18,4220.58088,7106.00256,21.8,602871.3817,6940480.549,43,V,,,
1.58E+18,4220.58085,7106.00254,21.8,602871.3817,6940480.549,43,V,,,
1.58E+18,4220.58081,7106.00252,21.8,602871.3817,6940480.549,43,V,,,
1.58E+18,4220.5807,7106.00248,21.5,602866.5914,6940469.252,43,V,,,
1.58E+18,4220.58063,7106.00243,21.4,602866.937,6940458.115,43,V,,,
1.58E+18,4220.58051,7106.00238,21.1,602862.1467,6940446.819,43,V,,,
1.58E+18,4220.58036,7106.00232,20.9,602862.8379,6940424.544,43,V,,,
1.58E+18,4220.58021,7106.00228,20.7,602858.0475,6940413.248,43,V,,,
1.58E+18,4220.5801,7106.00218,20.4,602853.257,6940401.951,43,V,,,
1.58E+18,4220.58003,7106.0021,20.1,602853.6026,6940390.814,43,V,,,
1.58E+18,4220.57994,7106.00205,20,602848.8121,6940379.518,43,V,,,
1.58E+18,4220.57978,7106.00196,19.8,602844.3671,6940357.084,43,V,,,
1.58E+18,4220.57967,7106.0019,19.7,602844.7127,6940345.947,43,V,,,
1.58E+18,4220.57966,7106.00192,19.6,602844.7127,6940345.947,43,V,,,
1.58E+18,4220.57965,7106.00193,19.5,602844.7127,6940345.947,43,V,,,
1.58E+18,4220.57951,7106.00189,19.2,602839.922,6940334.651,43,V,,,
1.58E+18,4220.57947,7106.0019,19.1,602845.4038,6940323.673,43,V,,,
1.58E+18,4220.57943,7106.00189,19,602840.2676,6940323.514,43,V,,,
1.58E+18,4220.57939,7106.00191,18.9,602845.7493,6940312.536,43,V,,,
1.58E+18,4220.57943,7106.00192,18.9,602845.4038,6940323.673,43,V,,,
1.58E+18,4220.57943,7106.00193,18.9,602845.4038,6940323.673,43,V,,,
1.58E+18,4220.57941,7106.0019,18.8,602845.4038,6940323.673,43,V,,,
1.58E+18,4220.57944,7106.00192,18.8,602845.4038,6940323.673,43,V,,,
1.58E+18,4220.57944,7106.00189,18.9,602840.2676,6940323.514,43,V,,,
1.58E+18,4220.57938,7106.00189,18.7,602840.6131,6940312.376,43,V,,,
1.58E+18,4220.57933,7106.00189,18.6,602840.6131,6940312.376,43,V,,,
1.58E+18,4220.57928,7106.00188,18.4,602840.9586,6940301.239,43,V,,,
1.58E+18,4220.57924,7106.00186,18.3,602840.9586,6940301.239,43,V,,,
1.58E+18,4220.57923,7106.00185,18.3,602840.9586,6940301.239,43,V,,,
1.58E+18,4220.57918,7106.00181,18.2,602841.3042,6940290.102,43,V,,,
1.58E+18,4220.57915,7106.00178,18,602836.1679,6940289.943,43,V,,,
1.58E+18,4220.57914,7106.00177,18.1,602836.1679,6940289.943,43,V,,,
1.58E+18,4220.57908,7106.00174,18,602836.5134,6940278.806,43,V,,,
1.58E+18,4220.57904,7106.00174,17.9,602836.5134,6940278.806,43,V,,,
1.58E+18,4220.57901,7106.00175,17.9,602836.5134,6940278.806,43,V,,,
1.58E+18,4220.57897,7106.00174,17.9,602836.859,6940267.669,43,V,,,
1.58E+18,4220.57898,7106.00175,17.9,602836.859,6940267.669,43,V,,,
1.58E+18,4220.579,7106.0018,17.9,602841.6497,6940278.965,43,V,,,
1.58E+18,4220.579,7106.00181,17.9,602841.6497,6940278.965,43,V,,,
1.58E+18,4220.57899,7106.00183,17.8,602841.9952,6940267.828,43,V,,,
1.58E+18,4220.579,7106.00187,17.8,602841.6497,6940278.965,43,V,,,
1.58E+18,4220.57898,7106.00187,17.8,602841.9952,6940267.828,43,V,,,
1.58E+18,4220.57898,7106.00188,17.6,602841.9952,6940267.828,43,V,,,
1.58E+18,4220.57901,7106.00192,17.6,602846.786,6940279.124,43,V,,,
1.58E+18,4220.57904,7106.00195,17.6,602846.786,6940279.124,43,V,,,
1.58E+18,4220.57904,7106.00196,17.6,602846.786,6940279.124,43,V,,,
1.58E+18,4220.57905,7106.00202,17.5,602851.9222,6940279.284,43,V,,,
1.58E+18,4220.5792,7106.00218,17.6,602856.3673,6940301.717,43,V,,,
1.58E+18,4220.57919,7106.00223,17.5,602861.8491,6940290.74,43,V,,,
1.58E+18,4220.5792,7106.00227,17.5,602861.5035,6940301.877,43,V,,,
1.58E+18,4220.57923,7106.00231,17.5,602866.6397,6940302.036,43,V,,,
1.58E+18,4220.57936,7106.00244,17.7,602871.4303,6940313.333,43,V,,,
1.58E+18,4220.57949,7106.00253,17.8,602876.2209,6940324.629,43,V,,,
1.58E+18,4220.57949,7106.00251,17.8,602876.2209,6940324.629,43,V,,,
1.58E+18,4220.57948,7106.00249,17.8,602871.0847,6940324.47,43,V,,,
1.58E+18,4220.57947,7106.00248,17.7,602871.0847,6940324.47,43,V,,,
1.58E+18,4220.57945,7106.00243,17.6,602871.0847,6940324.47,43,V,,,
1.58E+18,4220.57941,7106.00239,17.6,602865.9485,6940324.31,43,V,,,
1.58E+18,4220.57944,7106.00235,17.7,602865.9485,6940324.31,43,V,,,
1.58E+18,4220.57959,7106.00241,17.9,602870.739,6940335.607,43,V,,,
1.58E+18,4220.57974,7106.00245,18,602870.0478,6940357.881,43,V,,,
1.58E+18,4220.57988,7106.00249,18.2,602869.7021,6940369.018,43,V,,,
1.58E+18,4220.57999,7106.00249,18.4,602869.3565,6940380.155,43,V,,,
1.58E+18,4220.58011,7106.0025,18.5,602873.8013,6940402.589,43,V,,,
1.58E+18,4220.5802,7106.0025,18.6,602873.4556,6940413.726,43,V,,,
1.58E+18,4220.58022,7106.0025,18.7,602873.4556,6940413.726,43,V,,,
1.58E+18,4220.58023,7106.00249,18.8,602868.3196,6940413.567,43,V,,,
1.58E+18,4220.58027,7106.00252,18.9,602873.4556,6940413.726,43,V,,,
1.58E+18,4220.58018,7106.00251,19.1,602873.8013,6940402.589,43,V,,,
1.58E+18,4220.5801,7106.00258,19.3,602873.8013,6940402.589,43,V,,,
1.58E+18,4220.58006,7106.00264,19.6,602879.283,6940391.611,43,V,,,
1.58E+18,4220.58005,7106.00272,19.8,602884.4191,6940391.771,43,V,,,
1.58E+18,4220.57995,7106.00271,20.2,602884.7648,6940380.634,43,V,,,
1.58E+18,4220.57981,7106.00268,20.3,602879.9744,6940369.337,43,V,,,
1.58E+18,4220.57962,7106.0026,20.5,602880.6657,6940347.063,43,V,,,
1.58E+18,4220.57955,7106.00255,20.7,602875.8752,6940335.766,43,V,,,
1.58E+18,4220.57946,7106.00252,20.9,602876.2209,6940324.629,43,V,,,
1.58E+18,4220.57939,7106.0025,21,602876.5665,6940313.492,43,V,,,
1.58E+18,4220.57933,7106.00251,21,602876.5665,6940313.492,43,V,,,
1.58E+18,4220.57926,7106.00252,21,602876.9122,6940302.355,43,V,,,
1.58E+18,4220.57917,7106.00249,21.1,602872.1216,6940291.058,43,V,,,
1.58E+18,4220.57911,7106.0025,21.1,602877.2578,6940291.218,43,V,,,
1.58E+18,4220.57904,7106.00246,21.1,602872.4672,6940279.921,43,V,,,
1.58E+18,4220.579,7106.00242,21,602872.4672,6940279.921,43,V,,,
1.58E+18,4220.57895,7106.00239,20.9,602867.6766,6940268.625,43,V,,,
1.58E+18,4220.57888,7106.00237,21,602868.0222,6940257.488,43,V,,,
1.58E+18,4220.57881,7106.00233,21,602868.0222,6940257.488,43,V,,,
1.58E+18,4220.57875,7106.00232,21,602868.3678,6940246.351,43,V,,,
1.58E+18,4220.57874,7106.00249,21.1,602873.5041,6940246.51,43,V,,,
1.58E+18,4220.57866,7106.0028,21.1,602894.3951,6940236.01,43,V,,,
1.58E+18,4220.57858,7106.00302,20.1,602905.0134,6940225.192,43,V,,,
1.58E+18,4220.57854,7106.00378,19.7,602940.9678,6940226.309,43,V,,,
1.58E+18,4220.57841,7106.00468,19.3,602987.5409,6940216.607,43,V,,,
1.58E+18,4220.57831,7106.00557,18.9,603034.1142,6940206.907,43,V,,,
1.58E+18,4220.57826,7106.00617,19.1,603065.2787,6940196.728,43,V,,,
1.58E+18,4220.5784,7106.00641,19,603079.9952,6940219.481,43,V,,,
1.58E+18,4220.57858,7106.00659,18.9,603084.7852,6940230.778,43,V,,,
1.58E+18,4220.57875,7106.00672,18.6,603094.3651,6940253.372,43,V,,,
1.58E+18,4220.57899,7106.00689,18.3,603098.8086,6940275.806,43,V,,,
1.58E+18,4220.57906,7106.00692,18.1,603103.5985,6940287.102,43,V,,,
1.58E+18,4220.57904,7106.00687,18,603098.4622,6940286.943,43,V,,,
1.58E+18,4220.57904,7106.00684,17.9,603098.4622,6940286.943,43,V,,,
1.58E+18,4220.57903,7106.0068,17.8,603098.4622,6940286.943,43,V,,,
1.58E+18,4220.57901,7106.00674,17.8,603093.326,6940286.783,43,V,,,
1.58E+18,4220.57911,7106.0068,17.7,603098.1158,6940298.08,43,V,,,
1.58E+18,4220.5792,7106.00685,17.7,603097.7694,6940309.217,43,V,,,
1.58E+18,4220.57926,7106.00691,17.6,603102.9056,6940309.377,43,V,,,
1.58E+18,4220.57929,7106.00694,17.6,603102.9056,6940309.377,43,V,,,
1.58E+18,4220.57934,7106.00696,17.4,603102.5592,6940320.514,43,V,,,
1.58E+18,4220.57938,7106.00698,17.4,603102.5592,6940320.514,43,V,,,
1.58E+18,4220.57943,7106.00699,17.4,603102.2128,6940331.651,43,V,,,
1.58E+18,4220.57948,7106.00701,17.4,603107.349,6940331.811,43,V,,,
1.58E+18,4220.57954,7106.00704,17.3,603107.0026,6940342.948,43,V,,,
1.58E+18,4220.57959,7106.00707,17.2,603107.0026,6940342.948,43,V,,,
1.58E+18,4220.57963,7106.00708,17.1,603106.6561,6940354.085,43,V,,,
1.58E+18,4220.57967,7106.00711,17.1,603111.7923,6940354.245,43,V,,,
1.58E+18,4220.57968,7106.00713,17,603111.7923,6940354.245,43,V,,,
1.58E+18,4220.57966,7106.00711,16.9,603111.7923,6940354.245,43,V,,,
1.58E+18,4220.57968,7106.00709,16.8,603106.6561,6940354.085,43,V,,,
1.58E+18,4220.57966,7106.00707,16.8,603106.6561,6940354.085,43,V,,,
1.58E+18,4220.57964,7106.00706,16.7,603106.6561,6940354.085,43,V,,,
1.58E+18,4220.57961,7106.00703,16.7,603106.6561,6940354.085,43,V,,,
1.58E+18,4220.57958,7106.00698,16.7,603101.8664,6940342.788,43,V,,,
1.58E+18,4220.57953,7106.00691,16.6,603101.8664,6940342.788,43,V,,,
1.58E+18,4220.57946,7106.00687,16.5,603097.0766,6940331.491,43,V,,,
1.58E+18,4220.57943,7106.00688,16.4,603097.0766,6940331.491,43,V,,,
1.58E+18,4220.57937,7106.00688,16.2,603097.423,6940320.354,43,V,,,
1.58E+18,4220.57931,7106.00688,16.1,603097.423,6940320.354,43,V,,,
1.58E+18,4220.5792,7106.00689,15.9,603097.7694,6940309.217,43,V,,,
1.58E+18,4220.57909,7106.00689,15.7,603098.4622,6940286.943,43,V,,,
1.58E+18,4220.57899,7106.00687,15.6,603098.8086,6940275.806,43,V,,,
1.58E+18,4220.57893,7106.00688,15.6,603098.8086,6940275.806,43,V,,,
1.58E+18,4220.57884,7106.0069,15.4,603104.2913,6940264.828,43,V,,,
1.58E+18,4220.57877,7106.00693,15.4,603104.6377,6940253.691,43,V,,,
1.58E+18,4220.57871,7106.00696,15.4,603104.6377,6940253.691,43,V,,,
1.58E+18,4220.57865,7106.00701,15.3,603110.1204,6940242.714,43,V,,,
1.58E+18,4220.57858,7106.00704,15.2,603110.4669,6940231.577,43,V,,,
1.58E+18,4220.57853,7106.00708,15.2,603110.4669,6940231.577,43,V,,,
1.58E+18,4220.57848,7106.0071,15.2,603115.9496,6940220.599,43,V,,,
1.58E+18,4220.57844,7106.00711,15.2,603115.9496,6940220.599,43,V,,,
1.58E+18,4220.57838,7106.00713,15.3,603116.2961,6940209.462,43,V,,,
1.58E+18,4220.57832,7106.00716,15.3,603116.2961,6940209.462,43,V,,,
1.58E+18,4220.57831,7106.00719,15.3,603116.2961,6940209.462,43,V,,,
1.58E+18,4220.5783,7106.0072,15.2,603121.4324,6940209.622,43,V,,,
1.58E+18,4220.5783,7106.00721,15.2,603121.4324,6940209.622,43,V,,,
1.58E+18,4220.57832,7106.00724,15.2,603121.4324,6940209.622,43,V,,,
1.58E+18,4220.57836,7106.00728,15.2,603121.4324,6940209.622,43,V,,,
1.58E+18,4220.5784,7106.00734,15.1,603126.2223,6940220.919,43,V,,,
1.58E+18,4220.57841,7106.00739,15,603126.2223,6940220.919,43,V,,,
1.58E+18,4220.57843,7106.00744,14.9,603131.3587,6940221.079,43,V,,,
1.58E+18,4220.57843,7106.00745,14.7,603131.3587,6940221.079,43,V,,,
1.58E+18,4220.57843,7106.00752,14.5,603136.495,6940221.239,43,V,,,
1.58E+18,4220.57844,7106.00759,14.4,603136.495,6940221.239,43,V,,,
1.58E+18,4220.57848,7106.00764,14.4,603141.6314,6940221.398,43,V,,,
1.58E+18,4220.57849,7106.00766,14.3,603141.6314,6940221.398,43,V,,,
1.58E+18,4220.57851,7106.00767,14.3,603141.2848,6940232.535,43,V,,,
1.58E+18,4220.57854,7106.0077,14.3,603146.4212,6940232.695,43,V,,,
1.58E+18,4220.5786,7106.00775,14.3,603146.0746,6940243.832,43,V,,,
1.58E+18,4220.57866,7106.00777,14.3,603146.0746,6940243.832,43,V,,,
1.58E+18,4220.57873,7106.00782,14.4,603150.8644,6940255.129,43,V,,,
1.58E+18,4220.57875,7106.00787,14.3,603150.8644,6940255.129,43,V,,,
1.58E+18,4220.57877,7106.00791,14.3,603156.0007,6940255.289,43,V,,,
1.58E+18,4220.57877,7106.00796,14.2,603156.0007,6940255.289,43,V,,,
1.58E+18,4220.57876,7106.00799,14.1,603156.0007,6940255.289,43,V,,,
1.58E+18,4220.57874,7106.00798,13.9,603156.0007,6940255.289,43,V,,,
1.58E+18,4220.57872,7106.00799,13.8,603156.0007,6940255.289,43,V,,,
1.58E+18,4220.57872,7106.008,13.7,603161.137,6940255.449,43,V,,,
1.58E+18,4220.57871,7106.00799,13.6,603156.0007,6940255.289,43,V,,,
1.58E+18,4220.57872,7106.00797,13.5,603156.0007,6940255.289,43,V,,,
1.58E+18,4220.57872,7106.00796,13.5,603156.0007,6940255.289,43,V,,,
1.58E+18,4220.5787,7106.00798,13.6,603156.0007,6940255.289,43,V,,,
1.58E+18,4220.57867,7106.00795,13.7,603156.3473,6940244.152,43,V,,,
1.58E+18,4220.57866,7106.00798,13.8,603156.3473,6940244.152,43,V,,,
1.58E+18,4220.57865,7106.00798,13.9,603156.3473,6940244.152,43,V,,,
1.58E+18,4220.57862,7106.00797,14.1,603156.3473,6940244.152,43,V,,,
1.58E+18,4220.57859,7106.00796,14.2,603156.6938,6940233.015,43,V,,,
1.58E+18,4220.57855,7106.00794,14.4,603156.6938,6940233.015,43,V,,,
1.58E+18,4220.57851,7106.00792,14.6,603156.6938,6940233.015,43,V,,,
1.58E+18,4220.57851,7106.00795,14.8,603156.6938,6940233.015,43,V,,,
1.58E+18,4220.5785,7106.00796,14.9,603156.6938,6940233.015,43,V,,,
1.58E+18,4220.57849,7106.00797,15,603157.0404,6940221.878,43,V,,,
1.58E+18,4220.57847,7106.00799,15.1,603157.0404,6940221.878,43,V,,,
1.58E+18,4220.57849,7106.00799,15.2,603157.0404,6940221.878,43,V,,,
1.58E+18,4220.57853,7106.00798,15.3,603156.6938,6940233.015,43,V,,,
1.58E+18,4220.57854,7106.00796,15.4,603156.6938,6940233.015,43,V,,,
1.58E+18,4220.57857,7106.00795,15.5,603156.6938,6940233.015,43,V,,,
1.58E+18,4220.57858,7106.00794,15.5,603156.6938,6940233.015,43,V,,,
1.58E+18,4220.57858,7106.00792,15.4,603156.6938,6940233.015,43,V,,,
1.58E+18,4220.5786,7106.00788,15.4,603151.2109,6940243.992,43,V,,,
1.58E+18,4220.57859,7106.00785,15.4,603151.5575,6940232.855,43,V,,,
1.58E+18,4220.57861,7106.00783,15.4,603151.2109,6940243.992,43,V,,,
1.58E+18,4220.57863,7106.00783,15.4,603151.2109,6940243.992,43,V,,,
1.58E+18,4220.57863,7106.00781,15.4,603151.2109,6940243.992,43,V,,,
1.58E+18,4220.57862,7106.00779,15.5,603146.0746,6940243.832,43,V,,,
1.58E+18,4220.57862,7106.00778,15.6,603146.0746,6940243.832,43,V,,,
1.58E+18,4220.5786,7106.00776,15.8,603146.0746,6940243.832,43,V,,,
1.58E+18,4220.57859,7106.00775,15.9,603146.4212,6940232.695,43,V,,,
1.58E+18,4220.57857,7106.00773,16.1,603146.4212,6940232.695,43,V,,,
1.58E+18,4220.57853,7106.00769,16.3,603141.2848,6940232.535,43,V,,,
1.58E+18,4220.57847,7106.00767,16.5,603141.6314,6940221.398,43,V,,,
1.58E+18,4220.57839,7106.00765,16.7,603141.9779,6940210.261,43,V,,,
1.58E+18,4220.57829,7106.00763,16.9,603142.3244,6940199.124,43,V,,,
1.58E+18,4220.57821,7106.00763,17.1,603142.3244,6940199.124,43,V,,,
1.58E+18,4220.57814,7106.00763,17.3,603142.671,6940187.987,43,V,,,
1.58E+18,4220.57807,7106.00762,17.4,603143.0175,6940176.85,43,V,,,
1.58E+18,4220.57803,7106.00758,17.6,603137.8811,6940176.69,43,V,,,
1.58E+18,4220.57799,7106.00755,17.7,603138.2276,6940165.553,43,V,,,
1.58E+18,4220.57796,7106.00753,17.8,603138.2276,6940165.553,43,V,,,
1.58E+18,4220.57791,7106.0075,17.9,603138.2276,6940165.553,43,V,,,
1.58E+18,4220.57787,7106.00748,17.8,603133.4377,6940154.256,43,V,,,
1.58E+18,4220.57784,7106.00746,17.9,603133.4377,6940154.256,43,V,,,
1.58E+18,4220.57781,7106.00745,17.9,603133.4377,6940154.256,43,V,,,
1.58E+18,4220.5778,7106.00745,17.8,603133.4377,6940154.256,43,V,,,
1.58E+18,4220.57779,7106.00746,17.8,603133.7842,6940143.119,43,V,,,
1.58E+18,4220.57782,7106.00747,17.8,603133.4377,6940154.256,43,V,,,
1.58E+18,4220.57785,7106.00751,17.7,603138.5741,6940154.416,43,V,,,
1.58E+18,4220.57786,7106.00755,17.7,603138.5741,6940154.416,43,V,,,
1.58E+18,4220.57793,7106.00765,17.6,603143.364,6940165.713,43,V,,,
1.58E+18,4220.57793,7106.00767,17.6,603143.364,6940165.713,43,V,,,
1.58E+18,4220.57791,7106.00767,17.7,603143.364,6940165.713,43,V,,,
1.58E+18,4220.57788,7106.00766,17.8,603143.7106,6940154.576,43,V,,,
1.58E+18,4220.57785,7106.00762,18,603143.7106,6940154.576,43,V,,,
1.58E+18,4220.57784,7106.0076,18,603143.7106,6940154.576,43,V,,,
1.58E+18,4220.57781,7106.00759,18.1,603138.5741,6940154.416,43,V,,,
1.58E+18,4220.57779,7106.00759,18.2,603138.9206,6940143.279,43,V,,,
1.58E+18,4220.57782,7106.00761,18.3,603143.7106,6940154.576,43,V,,,
1.58E+18,4220.57786,7106.00764,18.3,603143.7106,6940154.576,43,V,,,
1.58E+18,4220.57787,7106.00762,18.3,603143.7106,6940154.576,43,V,,,
1.58E+18,4220.57786,7106.00759,18.4,603138.5741,6940154.416,43,V,,,
1.58E+18,4220.57786,7106.00758,18.4,603138.5741,6940154.416,43,V,,,
1.58E+18,4220.57786,7106.00756,18.4,603138.5741,6940154.416,43,V,,,
1.58E+18,4220.57787,7106.00752,18.4,603138.5741,6940154.416,43,V,,,
1.58E+18,4220.57789,7106.00749,18.4,603133.4377,6940154.256,43,V,,,
1.58E+18,4220.57793,7106.00749,18.5,603133.0912,6940165.393,43,V,,,
1.58E+18,4220.57798,7106.00751,18.8,603138.2276,6940165.553,43,V,,,
1.58E+18,4220.57803,7106.00753,19,603137.8811,6940176.69,43,V,,,
1.58E+18,4220.57808,7106.00757,19.3,603137.8811,6940176.69,43,V,,,
1.58E+18,4220.57808,7106.00756,19.3,603137.8811,6940176.69,43,V,,,
1.58E+18,4220.57809,7106.00755,19.3,603137.8811,6940176.69,43,V,,,
1.58E+18,4220.57811,7106.00756,19.4,603137.5346,6940187.827,43,V,,,
1.58E+18,4220.57811,7106.00756,19.5,603137.5346,6940187.827,43,V,,,
1.58E+18,4220.57811,7106.00756,19.6,603137.5346,6940187.827,43,V,,,
1.58E+18,4220.57813,7106.00758,19.6,603137.5346,6940187.827,43,V,,,
1.58E+18,4220.57819,7106.00764,19.9,603142.671,6940187.987,43,V,,,
1.58E+18,4220.57819,7106.00764,20,603142.671,6940187.987,43,V,,,
1.58E+18,4220.57825,7106.00769,20,603142.3244,6940199.124,43,V,,,
1.58E+18,4220.57834,7106.00777,20.1,603147.1143,6940210.421,43,V,,,
1.58E+18,4220.57838,7106.00782,20.1,603152.2506,6940210.581,43,V,,,
1.58E+18,4220.57842,7106.00786,20.1,603151.9041,6940221.718,43,V,,,
1.58E+18,4220.57845,7106.0079,20.1,603157.0404,6940221.878,43,V,,,
1.58E+18,4220.57851,7106.00794,20.1,603156.6938,6940233.015,43,V,,,
1.58E+18,4220.57855,7106.00796,20,603156.6938,6940233.015,43,V,,,
1.58E+18,4220.57863,7106.00801,20.1,603161.4836,6940244.312,43,V,,,
1.58E+18,4220.57874,7106.00816,20.3,603166.2733,6940255.609,43,V,,,
1.58E+18,4220.57883,7106.00828,20.5,603171.0629,6940266.906,43,V,,,
1.58E+18,4220.57894,7106.00839,20.7,603175.8525,6940278.203,43,V,,,
1.58E+18,4220.57906,7106.00854,20.9,603185.7784,6940289.66,43,V,,,
1.58E+18,4220.57919,7106.0087,21.2,603195.7041,6940301.116,43,V,,,
1.58E+18,4220.57931,7106.00884,21.4,603200.1469,6940323.551,43,V,,,
1.58E+18,4220.57945,7106.009,21.6,603210.0725,6940335.007,43,V,,,
1.58E+18,4220.57959,7106.00914,21.8,603214.8619,6940346.305,43,V,,,
1.58E+18,4220.57972,7106.00929,22.1,603219.3044,6940368.739,43,V,,,
1.58E+18,4220.57988,7106.00948,22.4,603229.2298,6940380.196,43,V,,,
1.58E+18,4220.57995,7106.00952,22.3,603234.019,6940391.493,43,V,,,
1.58E+18,4220.58003,7106.00956,22.1,603233.6722,6940402.63,43,V,,,
1.58E+18,4220.5801,7106.0096,22,603238.4614,6940413.927,43,V,,,
1.58E+18,4220.58019,7106.0097,22.1,603243.5974,6940414.087,43,V,,,
1.58E+18,4220.58029,7106.00979,22.2,603243.2505,6940425.224,43,V,,,
1.58E+18,4220.58036,7106.00984,22.3,603248.0396,6940436.521,43,V,,,
1.58E+18,4220.58044,7106.00995,22.4,603252.8287,6940447.818,43,V,,,
1.58E+18,4220.58052,7106.01002,22.5,603257.6178,6940459.115,43,V,,,
1.58E+18,4220.58058,7106.01013,22.6,603262.7537,6940459.275,43,V,,,
1.58E+18,4220.58064,7106.01022,22.7,603267.5427,6940470.572,43,V,,,
1.58E+18,4220.5807,7106.01029,22.7,603267.1957,6940481.709,43,V,,,
1.58E+18,4220.58077,7106.01037,22.8,603272.3317,6940481.869,43,V,,,
1.58E+18,4220.58085,7106.01045,22.9,603277.1206,6940493.166,43,V,,,
1.58E+18,4220.5809,7106.01048,23,603276.7736,6940504.304,43,V,,,
1.58E+18,4220.58096,7106.01049,23,603276.7736,6940504.304,43,V,,,
1.58E+18,4220.581,7106.0105,23,603281.5625,6940515.601,43,V,,,
1.58E+18,4220.58103,7106.01053,23.1,603281.5625,6940515.601,43,V,,,
1.58E+18,4220.58104,7106.01059,23.5,603281.5625,6940515.601,43,V,,,
1.58E+18,4220.58105,7106.01066,23.9,603286.6984,6940515.761,43,V,,,
1.58E+18,4220.58088,7106.01064,24.1,603287.3925,6940493.487,43,V,,,
1.58E+18,4220.58073,7106.01064,24.4,603287.7395,6940482.349,43,V,,,
1.58E+18,4220.58061,7106.01063,24.6,603288.0866,6940471.212,43,V,,,
1.58E+18,4220.5805,7106.0106,24.7,603288.4336,6940460.075,43,V,,,
1.58E+18,4220.58043,7106.01058,24.7,603283.6447,6940448.778,43,V,,,
1.58E+18,4220.5804,7106.01056,24.8,603283.6447,6940448.778,43,V,,,
1.58E+18,4220.58043,7106.01064,25,603288.7807,6940448.938,43,V,,,
1.58E+18,4220.58047,7106.01073,25.2,603293.9167,6940449.098,43,V,,,
1.58E+18,4220.58051,7106.01081,25.5,603298.7056,6940460.395,43,V,,,
1.58E+18,4220.58056,7106.01091,25.7,603303.8416,6940460.555,43,V,,,
1.58E+18,4220.5806,7106.011,26,603308.6304,6940471.853,43,V,,,
1.58E+18,4220.58064,7106.01107,26.2,603308.6304,6940471.853,43,V,,,
1.58E+18,4220.58071,7106.01116,26.4,603313.4193,6940483.15,43,V,,,
1.58E+18,4220.58077,7106.01125,26.7,603318.5552,6940483.31,43,V,,,
1.58E+18,4220.58084,7106.01133,26.8,603323.344,6940494.607,43,V,,,
1.58E+18,4220.58092,7106.0114,27,603328.1327,6940505.904,43,V,,,
1.58E+18,4220.58099,7106.0115,27.1,603333.2686,6940506.064,43,V,,,
1.58E+18,4220.58106,7106.01161,27.4,603338.0573,6940517.362,43,V,,,
1.58E+18,4220.58108,7106.01158,27.3,603332.9214,6940517.201,43,V,,,
1.58E+18,4220.58111,7106.01154,27.1,603332.5742,6940528.339,43,V,,,
1.58E+18,4220.58115,7106.01154,27.1,603332.5742,6940528.339,43,V,,,
1.58E+18,4220.58129,7106.01188,27.7,603347.6345,6940539.956,43,V,,,
1.58E+18,4220.58143,7106.01222,28.5,603367.4833,6940562.871,43,V,,,
1.58E+18,4220.58145,7106.0122,28.4,603367.4833,6940562.871,43,V,,,
1.58E+18,4220.58148,7106.01215,28.3,603362.3475,6940562.711,43,V,,,
1.58E+18,4220.58152,7106.01213,28.2,603362.0002,6940573.848,43,V,,,
1.58E+18,4220.58158,7106.01218,28.5,603362.0002,6940573.848,43,V,,,
1.58E+18,4220.58164,7106.01222,28.7,603366.7886,6940585.145,43,V,,,
1.58E+18,4220.58171,7106.01227,28.9,603366.4413,6940596.282,43,V,,,
1.58E+18,4220.58177,7106.01234,29.1,603371.5771,6940596.442,43,V,,,
1.58E+18,4220.58182,7106.01239,29.3,603371.2297,6940607.579,43,V,,,
1.58E+18,4220.58187,7106.01245,29.5,603376.3655,6940607.739,43,V,,,
1.58E+18,4220.58192,7106.01248,29.7,603376.0181,6940618.877,43,V,,,
1.58E+18,4220.58197,7106.01253,29.9,603381.1538,6940619.037,43,V,,,
1.58E+18,4220.58201,7106.0126,30.1,603385.9422,6940630.334,43,V,,,
1.58E+18,4220.58205,7106.01268,30.3,603385.9422,6940630.334,43,V,,,
1.58E+18,4220.5821,7106.01275,30.5,603390.7305,6940641.631,43,V,,,
1.58E+18,4220.58215,7106.01282,30.7,603395.8662,6940641.792,43,V,,,
1.58E+18,4220.58221,7106.0129,30.9,603400.6544,6940653.089,43,V,,,
1.58E+18,4220.58227,7106.01301,31.1,603405.7901,6940653.249,43,V,,,
1.58E+18,4220.58233,7106.01311,31.4,603410.5783,6940664.546,43,V,,,
1.58E+18,4220.58237,7106.0132,31.8,603415.7139,6940664.707,43,V,,,
1.58E+18,4220.58243,7106.01329,32,603415.3664,6940675.844,43,V,,,
1.58E+18,4220.58246,7106.01333,32.3,603420.5021,6940676.004,43,V,,,
1.58E+18,4220.58249,7106.01339,32.5,603420.5021,6940676.004,43,V,,,
1.58E+18,4220.58253,7106.01344,32.7,603425.2902,6940687.301,43,V,,,
1.58E+18,4220.58259,7106.01349,32.8,603425.2902,6940687.301,43,V,,,
1.58E+18,4220.58264,7106.01353,33,603430.0782,6940698.599,43,V,,,
1.58E+18,4220.58269,7106.01357,33.1,603430.0782,6940698.599,43,V,,,
1.58E+18,4220.58275,7106.01361,33.1,603434.8663,6940709.896,43,V,,,
1.58E+18,4220.58281,7106.01365,33.2,603434.5187,6940721.033,43,V,,,
1.58E+18,4220.5829,7106.01367,33.2,603434.1711,6940732.17,43,V,,,
1.58E+18,4220.58299,7106.01366,33.3,603434.1711,6940732.17,43,V,,,
1.58E+18,4220.58305,7106.01365,33.5,603433.8235,6940743.307,43,V,,,
1.58E+18,4220.58312,7106.01363,33.5,603433.4759,6940754.444,43,V,,,
1.58E+18,4220.58319,7106.01361,33.6,603433.4759,6940754.444,43,V,,,
1.58E+18,4220.58325,7106.01359,33.7,603427.9929,6940765.421,43,V,,,
1.58E+18,4220.58331,7106.01357,33.7,603427.6453,6940776.558,43,V,,,
1.58E+18,4220.58337,7106.01356,33.9,603427.6453,6940776.558,43,V,,,
1.58E+18,4220.58353,7106.01352,34.2,603426.9502,6940798.832,43,V,,,
1.58E+18,4220.58357,7106.01348,34.3,603421.8147,6940798.672,43,V,,,
1.58E+18,4220.5837,7106.0134,34.5,603421.1196,6940820.946,43,V,,,
1.58E+18,4220.58381,7106.01334,34.7,603415.6366,6940831.923,43,V,,,
1.58E+18,4220.58393,7106.01329,34.9,603410.1537,6940842.9,43,V,,,
1.58E+18,4220.58405,7106.01325,35.1,603409.8062,6940854.037,43,V,,,
1.58E+18,4220.58416,7106.01316,35.4,603404.3233,6940865.014,43,V,,,
1.58E+18,4220.58421,7106.01308,35.6,603398.8405,6940875.991,43,V,,,
1.58E+18,4220.58419,7106.01298,35.8,603394.0526,6940864.693,43,V,,,
1.58E+18,4220.58417,7106.01288,36,603388.9173,6940864.533,43,V,,,
1.58E+18,4220.58414,7106.01277,36.2,603383.7819,6940864.373,43,V,,,
1.58E+18,4220.58412,7106.01264,36.3,603378.6466,6940864.213,43,V,,,
1.58E+18,4220.58412,7106.01244,36.2,603368.3759,6940863.892,43,V,,,
1.58E+18,4220.58414,7106.01221,36,603358.1051,6940863.572,43,V,,,
1.58E+18,4220.58413,7106.01204,35.8,603347.8344,6940863.252,43,V,,,
1.58E+18,4220.5841,7106.01186,35.6,603337.5637,6940862.932,43,V,,,
1.58E+18,4220.58407,7106.01172,35.5,603332.7756,6940851.634,43,V,,,
1.58E+18,4220.58407,7106.0116,35.3,603327.6402,6940851.474,43,V,,,
1.58E+18,4220.58402,7106.01152,35.2,603322.5049,6940851.314,43,V,,,
1.58E+18,4220.58396,7106.01149,35.1,603317.7167,6940840.017,43,V,,,
1.58E+18,4220.5839,7106.01146,35,603317.7167,6940840.017,43,V,,,
1.58E+18,4220.58384,7106.01146,35.1,603318.0639,6940828.88,43,V,,,
1.58E+18,4220.58376,7106.01145,35.1,603318.4111,6940817.743,43,V,,,
1.58E+18,4220.58369,7106.01144,35.2,603318.7583,6940806.606,43,V,,,
1.58E+18,4220.58359,7106.01155,35.4,603324.241,6940795.629,43,V,,,
1.58E+18,4220.58352,7106.01164,35.4,603329.3764,6940795.789,43,V,,,
1.58E+18,4220.58345,7106.01177,35.5,603334.8592,6940784.812,43,V,,,
1.58E+18,4220.5834,7106.01187,35.5,603339.9946,6940784.972,43,V,,,
1.58E+18,4220.58335,7106.01196,35.5,603345.4774,6940773.995,43,V,,,
1.58E+18,4220.58331,7106.01201,35.4,603350.6129,6940774.155,43,V,,,
1.58E+18,4220.58327,7106.01202,35.2,603350.9602,6940763.018,43,V,,,
1.58E+18,4220.58324,7106.01202,35.1,603350.9602,6940763.018,43,V,,,
1.58E+18,4220.5832,7106.01198,34.9,603345.8247,6940762.858,43,V,,,
1.58E+18,4220.58315,7106.01193,34.7,603346.172,6940751.721,43,V,,,
1.58E+18,4220.5831,7106.01188,34.4,603341.0364,6940751.561,43,V,,,
1.58E+18,4220.58306,7106.01183,34.2,603341.3837,6940740.424,43,V,,,
1.58E+18,4220.58301,7106.01182,34,603341.3837,6940740.424,43,V,,,
1.58E+18,4220.58296,7106.01185,33.9,603341.731,6940729.286,43,V,,,
1.58E+18,4220.58291,7106.01187,33.9,603341.731,6940729.286,43,V,,,
1.58E+18,4220.58286,7106.01188,33.9,603342.0783,6940718.149,43,V,,,
1.58E+18,4220.5828,7106.01191,33.9,603347.2138,6940718.31,43,V,,,
1.58E+18,4220.58274,7106.01193,33.9,603347.5611,6940707.172,43,V,,,
1.58E+18,4220.58268,7106.01196,33.8,603347.9084,6940696.035,43,V,,,
1.58E+18,4220.58262,7106.01197,33.8,603347.9084,6940696.035,43,V,,,
1.58E+18,4220.58256,7106.01199,33.8,603348.2557,6940684.898,43,V,,,
1.58E+18,4220.5825,7106.01198,33.7,603348.2557,6940684.898,43,V,,,
1.58E+18,4220.58245,7106.01196,33.7,603348.603,6940673.761,43,V,,,
1.58E+18,4220.58238,7106.01194,33.6,603348.9503,6940662.624,43,V,,,
1.58E+18,4220.5823,7106.01189,33.5,603343.8146,6940662.464,43,V,,,
1.58E+18,4220.58224,7106.01184,33.3,603344.1619,6940651.327,43,V,,,
1.58E+18,4220.58216,7106.01178,33.1,603339.3734,6940640.03,43,V,,,
1.58E+18,4220.58209,7106.01168,32.8,603334.585,6940628.732,43,V,,,
1.58E+18,4220.58203,7106.01162,32.5,603334.585,6940628.732,43,V,,,
1.58E+18,4220.58199,7106.01156,32.4,603329.7965,6940617.435,43,V,,,
1.58E+18,4220.58193,7106.01151,32.2,603329.7965,6940617.435,43,V,,,
1.58E+18,4220.58189,7106.01145,32.1,603325.0079,6940606.138,43,V,,,
1.58E+18,4220.58185,7106.01139,32,603319.8722,6940605.978,43,V,,,
1.58E+18,4220.5818,7106.01134,31.8,603319.8722,6940605.978,43,V,,,
1.58E+18,4220.58175,7106.01131,31.8,603320.2194,6940594.841,43,V,,,
1.58E+18,4220.58174,7106.01129,31.8,603315.0836,6940594.681,43,V,,,
1.58E+18,4220.58173,7106.01126,31.8,603315.0836,6940594.681,43,V,,,
1.58E+18,4220.58173,7106.01125,31.9,603315.0836,6940594.681,43,V,,,
1.58E+18,4220.58172,7106.01123,32.1,603315.0836,6940594.681,43,V,,,
1.58E+18,4220.58169,7106.01122,32.1,603315.4307,6940583.544,43,V,,,
1.58E+18,4220.58167,7106.0112,32.1,603315.4307,6940583.544,43,V,,,
1.58E+18,4220.58165,7106.01116,32.1,603310.295,6940583.384,43,V,,,
1.58E+18,4220.58163,7106.01113,32.1,603310.295,6940583.384,43,V,,,
1.58E+18,4220.58161,7106.01108,32.1,603305.1592,6940583.223,43,V,,,
1.58E+18,4220.58159,7106.01099,32,603300.3705,6940571.926,43,V,,,
1.58E+18,4220.58156,7106.0109,31.8,603300.3705,6940571.926,43,V,,,
1.58E+18,4220.58153,7106.01083,31.7,603295.2347,6940571.766,43,V,,,
1.58E+18,4220.58152,7106.01078,31.7,603290.0989,6940571.606,43,V,,,
1.58E+18,4220.58146,7106.01077,32,603290.446,6940560.469,43,V,,,
1.58E+18,4220.58137,7106.01077,32.3,603290.793,6940549.332,43,V,,,
1.58E+18,4220.58123,7106.01082,32.8,603296.276,6940538.355,43,V,,,
1.58E+18,4220.58113,7106.01085,33,603296.6231,6940527.218,43,V,,,
1.58E+18,4220.58102,7106.01087,33.3,603296.9701,6940516.081,43,V,,,
1.58E+18,4220.58097,7106.01086,33.4,603297.3172,6940504.944,43,V,,,
1.58E+18,4220.5809,7106.01088,33.6,603297.3172,6940504.944,43,V,,,
1.58E+18,4220.58091,7106.01083,33.6,603297.3172,6940504.944,43,V,,,
1.58E+18,4220.58089,7106.01082,33.6,603297.6643,6940493.807,43,V,,,
1.58E+18,4220.58084,7106.01081,33.8,603297.6643,6940493.807,43,V,,,
1.58E+18,4220.58075,7106.01081,33.9,603298.0114,6940482.67,43,V,,,
1.58E+18,4220.58064,7106.0108,34.1,603298.3585,6940471.532,43,V,,,
1.58E+18,4220.58056,7106.01079,34.3,603293.5696,6940460.235,43,V,,,
1.58E+18,4220.58044,7106.01079,34.4,603293.9167,6940449.098,43,V,,,
1.58E+18,4220.58032,7106.01078,34.4,603294.2638,6940437.961,43,V,,,
1.58E+18,4220.58022,7106.01078,34.5,603294.6108,6940426.824,43,V,,,
1.58E+18,4220.58011,7106.01081,34.6,603300.094,6940415.847,43,V,,,
1.58E+18,4220.58003,7106.0108,34.6,603300.441,6940404.71,43,V,,,
1.58E+18,4220.57989,7106.01082,34.6,603301.1352,6940382.436,43,V,,,
1.58E+18,4220.57978,7106.01084,34.6,603301.4823,6940371.299,43,V,,,
1.58E+18,4220.57969,7106.01088,34.7,603301.8294,6940360.162,43,V,,,
1.58E+18,4220.5796,7106.01093,34.6,603306.9655,6940360.322,43,V,,,
1.58E+18,4220.57957,7106.01101,34.5,603312.4488,6940349.345,43,V,,,
1.58E+18,4220.57953,7106.01114,34.4,603317.5849,6940349.505,43,V,,,
1.58E+18,4220.57956,7106.0113,34.1,603327.8572,6940349.825,43,V,,,
1.58E+18,4220.57946,7106.01135,34.3,603328.2044,6940338.688,43,V,,,
1.58E+18,4220.57934,7106.0114,34.5,603333.6878,6940327.711,43,V,,,
1.58E+18,4220.57924,7106.01146,34.6,603334.035,6940316.574,43,V,,,
1.58E+18,4220.5791,7106.01149,34.8,603334.3822,6940305.437,43,V,,,
1.58E+18,4220.57901,7106.01148,34.8,603334.7293,6940294.3,43,V,,,
1.58E+18,4220.57895,7106.01148,34.7,603335.0765,6940283.163,43,V,,,
1.58E+18,4220.57889,7106.01145,34.7,603335.4237,6940272.025,43,V,,,
1.58E+18,4220.57885,7106.01143,34.7,603335.4237,6940272.025,43,V,,,
1.58E+18,4220.57883,7106.01142,34.7,603335.4237,6940272.025,43,V,,,
1.58E+18,4220.57883,7106.01144,34.4,603335.4237,6940272.025,43,V,,,
1.58E+18,4220.57881,7106.01148,34.2,603335.4237,6940272.025,43,V,,,
1.58E+18,4220.57884,7106.01156,34.1,603340.56,6940272.186,43,V,,,
1.58E+18,4220.57883,7106.0116,33.9,603345.6963,6940272.346,43,V,,,
1.58E+18,4220.57885,7106.01161,33.7,603345.6963,6940272.346,43,V,,,
1.58E+18,4220.57887,7106.01163,33.4,603345.6963,6940272.346,43,V,,,
1.58E+18,4220.579,7106.01173,32.7,603350.1381,6940294.78,43,V,,,
1.58E+18,4220.57899,7106.01164,32.7,603345.349,6940283.483,43,V,,,
1.58E+18,4220.57896,7106.01156,32.7,603340.2128,6940283.323,43,V,,,
1.58E+18,4220.57894,7106.01148,32.7,603335.0765,6940283.163,43,V,,,
1.58E+18,4220.57894,7106.01137,32.6,603329.9403,6940283.002,43,V,,,
1.58E+18,4220.57895,7106.01125,32.6,603324.804,6940282.842,43,V,,,
1.58E+18,4220.57893,7106.01119,32.5,603319.6678,6940282.682,43,V,,,
1.58E+18,4220.57906,7106.0113,31.9,603329.5931,6940294.14,43,V,,,
1.58E+18,4220.57902,7106.01118,32,603319.3206,6940293.819,43,V,,,
1.58E+18,4220.57898,7106.01107,32,603314.5315,6940282.522,43,V,,,
1.58E+18,4220.57892,7106.01095,32.1,603309.3953,6940282.362,43,V,,,
1.58E+18,4220.57886,7106.01084,32.2,603304.6061,6940271.065,43,V,,,
1.58E+18,4220.57878,7106.01073,32.4,603299.8169,6940259.768,43,V,,,
1.58E+18,4220.57875,7106.01064,32.5,603294.6806,6940259.608,43,V,,,
1.58E+18,4220.57897,7106.01085,31.7,603304.259,6940282.202,43,V,,,
1.58E+18,4220.57916,7106.01101,31.1,603313.8373,6940304.796,43,V,,,
1.58E+18,4220.57929,7106.01109,30.7,603313.4902,6940315.933,43,V,,,
1.58E+18,4220.57937,7106.01108,30.5,603313.143,6940327.07,43,V,,,
1.58E+18,4220.57944,7106.01106,30.3,603312.7959,6940338.208,43,V,,,
1.58E+18,4220.57945,7106.01097,30.3,603307.6597,6940338.048,43,V,,,
1.58E+18,4220.57943,7106.01089,30.5,603302.5236,6940337.887,43,V,,,
1.58E+18,4220.57939,7106.01081,30.7,603302.8707,6940326.75,43,V,,,
1.58E+18,4220.57935,7106.01075,30.9,603297.7345,6940326.59,43,V,,,
1.58E+18,4220.57931,7106.0107,31.1,603297.7345,6940326.59,43,V,,,
1.58E+18,4220.57929,7106.01066,31.3,603292.9453,6940315.293,43,V,,,
1.58E+18,4220.57926,7106.0106,31.5,603292.9453,6940315.293,43,V,,,
1.58E+18,4220.57924,7106.01056,31.6,603287.8091,6940315.133,43,V,,,
1.58E+18,4220.5792,7106.01049,31.7,603282.6729,6940314.973,43,V,,,
1.58E+18,4220.57918,7106.01044,31.8,603283.0199,6940303.836,43,V,,,
1.58E+18,4220.57915,7106.01039,31.9,603277.8837,6940303.676,43,V,,,
1.58E+18,4220.57914,7106.01036,32,603277.8837,6940303.676,43,V,,,
1.58E+18,4220.57913,7106.01029,32.1,603272.7475,6940303.516,43,V,,,
1.58E+18,4220.57911,7106.01022,32.1,603272.7475,6940303.516,43,V,,,
1.58E+18,4220.57909,7106.01019,32.2,603267.9582,6940292.219,43,V,,,
1.58E+18,4220.57908,7106.01015,32.3,603267.9582,6940292.219,43,V,,,
1.58E+18,4220.57907,7106.01012,32.4,603267.9582,6940292.219,43,V,,,
1.58E+18,4220.57905,7106.0101,32.5,603267.9582,6940292.219,43,V,,,
1.58E+18,4220.57905,7106.01009,32.5,603262.822,6940292.059,43,V,,,
1.58E+18,4220.57909,7106.01011,32.4,603267.9582,6940292.219,43,V,,,
1.58E+18,4220.57915,7106.01018,32.2,603267.6113,6940303.356,43,V,,,
1.58E+18,4220.57922,7106.01025,32,603272.4005,6940314.653,43,V,,,
1.58E+18,4220.5793,7106.01021,31.5,603272.0535,6940325.79,43,V,,,
1.58E+18,4220.57937,7106.01028,31.4,603272.0535,6940325.79,43,V,,,
1.58E+18,4220.57939,7106.01033,31.2,603277.1897,6940325.95,43,V,,,
1.58E+18,4220.57944,7106.01046,31.3,603281.9789,6940337.247,43,V,,,
1.58E+18,4220.57946,7106.01052,31.3,603287.1151,6940337.407,43,V,,,
1.58E+18,4220.57953,7106.01066,31.3,603291.9042,6940348.704,43,V,,,
1.58E+18,4220.57956,7106.01071,31.2,603297.0403,6940348.864,43,V,,,
1.58E+18,4220.5796,7106.01077,31.1,603296.6933,6940360.002,43,V,,,
1.58E+18,4220.57963,7106.0108,30.9,603301.8294,6940360.162,43,V,,,
1.58E+18,4220.57959,7106.01083,30.5,603302.1765,6940349.025,43,V,,,
1.58E+18,4220.57963,7106.01075,29.8,603296.6933,6940360.002,43,V,,,
1.58E+18,4220.57966,7106.0107,29.2,603296.6933,6940360.002,43,V,,,
1.58E+18,4220.5797,7106.01067,28.7,603291.2101,6940370.979,43,V,,,
1.58E+18,4220.57974,7106.0107,28.4,603296.3462,6940371.139,43,V,,,
